{"type": "FeatureCollection", "features": [{"type": "Feature", "geometry": {"type": "Point", "coordinates": [121.048615, 14.650991]}, "properties": {"Data Type": "Regional", "Country": "Philippines", "City": "Quezon City", "Current Cases": "0", "Total Cases": "1680", "Deceased": "143", "Recovered": "447", "Total Cases/1M pop": "0", "Deaths/1M pop": "0", "Total Tests": "0", "Last Updated": "2020-05-14 02:22:22"}}, {"type": "Feature", "geometry": {"type": "Point", "coordinates": [123.893111, 10.309555]}, "properties": {"Data Type": "Regional", "Country": "Philippines", "City": "Cebu City", "Current Cases": "0", "Total Cases": "1531", "Deceased": "15", "Recovered": "24", "Total Cases/1M pop": "0", "Deaths/1M pop": "0", "Total Tests": "0", "Last Updated": "2020-05-14 02:22:22"}}, {"type": "Feature", "geometry": {"type": "Point", "coordinates": [120.97997, 14.590622]}, "properties": {"Data Type": "Regional", "Country": "Philippines", "City": "Manila", "Current Cases": "661", "Total Cases": "942", "Deceased": "71", "Recovered": "210", "Total Cases/1M pop": "0", "Deaths/1M pop": "0", "Total Tests": "0", "Last Updated": "2020-05-14 02:22:22"}}, {"type": "Feature", "geometry": {"type": "Point", "coordinates": [120.991549, 14.500702]}, "properties": {"Data Type": "Regional", "Country": "Philippines", "City": "Para\u00f1aque", "Current Cases": "371", "Total Cases": "547", "Deceased": "46", "Recovered": "130", "Total Cases/1M pop": "0", "Deaths/1M pop": "0", "Total Tests": "0", "Last Updated": "2020-05-14 02:22:22"}}, {"type": "Feature", "geometry": {"type": "Point", "coordinates": [121.023532, 14.556885]}, "properties": {"Data Type": "Regional", "Country": "Philippines", "City": "Makati", "Current Cases": "322", "Total Cases": "523", "Deceased": "32", "Recovered": "169", "Total Cases/1M pop": "0", "Deaths/1M pop": "0", "Total Tests": "0", "Last Updated": "2020-05-14 02:22:22"}}, {"type": "Feature", "geometry": {"type": "Point", "coordinates": [121.03323, 14.577781]}, "properties": {"Data Type": "Regional", "Country": "Philippines", "City": "Mandaluyong", "Current Cases": "387", "Total Cases": "515", "Deceased": "35", "Recovered": "93", "Total Cases/1M pop": "0", "Deaths/1M pop": "0", "Total Tests": "0", "Last Updated": "2020-05-14 02:22:22"}}, {"type": "Feature", "geometry": {"type": "Point", "coordinates": [121.076425, 14.56055]}, "properties": {"Data Type": "Regional", "Country": "Philippines", "City": "Pasig", "Current Cases": "268", "Total Cases": "390", "Deceased": "46", "Recovered": "76", "Total Cases/1M pop": "0", "Deaths/1M pop": "0", "Total Tests": "0", "Last Updated": "2020-05-14 02:22:22"}}, {"type": "Feature", "geometry": {"type": "Point", "coordinates": [121.074403, 14.526625]}, "properties": {"Data Type": "Regional", "Country": "Philippines", "City": "Taguig", "Current Cases": "251", "Total Cases": "341", "Deceased": "12", "Recovered": "78", "Total Cases/1M pop": "0", "Deaths/1M pop": "0", "Total Tests": "0", "Last Updated": "2020-05-14 02:22:22"}}, {"type": "Feature", "geometry": {"type": "Point", "coordinates": [120.99465, 14.5437]}, "properties": {"Data Type": "Regional", "Country": "Philippines", "City": "Pasay", "Current Cases": "220", "Total Cases": "285", "Deceased": "17", "Recovered": "48", "Total Cases/1M pop": "0", "Deaths/1M pop": "0", "Total Tests": "0", "Last Updated": "2020-05-14 02:22:22"}}, {"type": "Feature", "geometry": {"type": "Point", "coordinates": [120.984107, 14.657129]}, "properties": {"Data Type": "Regional", "Country": "Philippines", "City": "Caloocan", "Current Cases": "203", "Total Cases": "275", "Deceased": "25", "Recovered": "47", "Total Cases/1M pop": "0", "Deaths/1M pop": "0", "Total Tests": "0", "Last Updated": "2020-05-14 02:22:22"}}, {"type": "Feature", "geometry": {"type": "Point", "coordinates": [121.030049, 14.60474]}, "properties": {"Data Type": "Regional", "Country": "Philippines", "City": "San Juan", "Current Cases": "140", "Total Cases": "264", "Deceased": "35", "Recovered": "89", "Total Cases/1M pop": "0", "Deaths/1M pop": "0", "Total Tests": "0", "Last Updated": "2020-05-14 02:22:22"}}, {"type": "Feature", "geometry": {"type": "Point", "coordinates": [120.98191, 14.480609]}, "properties": {"Data Type": "Regional", "Country": "Philippines", "City": "Las Pi\u00f1as", "Current Cases": "142", "Total Cases": "213", "Deceased": "14", "Recovered": "57", "Total Cases/1M pop": "0", "Deaths/1M pop": "0", "Total Tests": "0", "Last Updated": "2020-05-14 02:22:22"}}, {"type": "Feature", "geometry": {"type": "Point", "coordinates": [121.041044, 14.394061]}, "properties": {"Data Type": "Regional", "Country": "Philippines", "City": "Muntinlupa", "Current Cases": "121", "Total Cases": "194", "Deceased": "24", "Recovered": "49", "Total Cases/1M pop": "0", "Deaths/1M pop": "0", "Total Tests": "0", "Last Updated": "2020-05-14 02:22:22"}}, {"type": "Feature", "geometry": {"type": "Point", "coordinates": [121.099354, 14.633108]}, "properties": {"Data Type": "Regional", "Country": "Philippines", "City": "Marikina", "Current Cases": "85", "Total Cases": "156", "Deceased": "19", "Recovered": "52", "Total Cases/1M pop": "0", "Deaths/1M pop": "0", "Total Tests": "0", "Last Updated": "2020-05-14 02:22:22"}}, {"type": "Feature", "geometry": {"type": "Point", "coordinates": [125.608365, 7.064458]}, "properties": {"Data Type": "Regional", "Country": "Philippines", "City": "Davao City", "Current Cases": "51", "Total Cases": "152", "Deceased": "20", "Recovered": "81", "Total Cases/1M pop": "0", "Deaths/1M pop": "0", "Total Tests": "0", "Last Updated": "2020-05-14 02:22:22"}}, {"type": "Feature", "geometry": {"type": "Point", "coordinates": [120.946172, 14.707735]}, "properties": {"Data Type": "Regional", "Country": "Philippines", "City": "Valenzuela", "Current Cases": "98", "Total Cases": "136", "Deceased": "8", "Recovered": "30", "Total Cases/1M pop": "0", "Deaths/1M pop": "0", "Total Tests": "0", "Last Updated": "2020-05-14 02:22:22"}}, {"type": "Feature", "geometry": {"type": "Point", "coordinates": [121.175861, 14.587026]}, "properties": {"Data Type": "Regional", "Country": "Philippines", "City": "Antipolo", "Current Cases": "98", "Total Cases": "131", "Deceased": "12", "Recovered": "21", "Total Cases/1M pop": "0", "Deaths/1M pop": "0", "Total Tests": "0", "Last Updated": "2020-05-14 02:22:22"}}, {"type": "Feature", "geometry": {"type": "Point", "coordinates": [120.966363, 14.431436]}, "properties": {"Data Type": "Regional", "Country": "Philippines", "City": "Bacoor, Cavite", "Current Cases": "74", "Total Cases": "106", "Deceased": "8", "Recovered": "24", "Total Cases/1M pop": "0", "Deaths/1M pop": "0", "Total Tests": "0", "Last Updated": "2020-05-14 02:22:22"}}, {"type": "Feature", "geometry": {"type": "Point", "coordinates": [123.942279, 10.343707]}, "properties": {"Data Type": "Regional", "Country": "Philippines", "City": "Mandaue, Cebu", "Current Cases": "94", "Total Cases": "99", "Deceased": "2", "Recovered": "3", "Total Cases/1M pop": "0", "Deaths/1M pop": "0", "Total Tests": "0", "Last Updated": "2020-05-14 02:22:22"}}, {"type": "Feature", "geometry": {"type": "Point", "coordinates": [121.115388, 14.580002]}, "properties": {"Data Type": "Regional", "Country": "Philippines", "City": "Cainta, Rizal", "Current Cases": "59", "Total Cases": "98", "Deceased": "10", "Recovered": "29", "Total Cases/1M pop": "0", "Deaths/1M pop": "0", "Total Tests": "0", "Last Updated": "2020-05-14 02:22:22"}}, {"type": "Feature", "geometry": {"type": "Point", "coordinates": [121.053188, 14.363668]}, "properties": {"Data Type": "Regional", "Country": "Philippines", "City": "San Pedro, Laguna", "Current Cases": "71", "Total Cases": "84", "Deceased": "5", "Recovered": "8", "Total Cases/1M pop": "0", "Deaths/1M pop": "0", "Total Tests": "0", "Last Updated": "2020-05-14 02:22:22"}}, {"type": "Feature", "geometry": {"type": "Point", "coordinates": [120.958105, 14.674725]}, "properties": {"Data Type": "Regional", "Country": "Philippines", "City": "Malabon", "Current Cases": "59", "Total Cases": "76", "Deceased": "5", "Recovered": "12", "Total Cases/1M pop": "0", "Deaths/1M pop": "0", "Total Tests": "0", "Last Updated": "2020-05-14 02:22:22"}}, {"type": "Feature", "geometry": {"type": "Point", "coordinates": [122.076369, 6.9046]}, "properties": {"Data Type": "Regional", "Country": "Philippines", "City": "Zamboanga City", "Current Cases": "54", "Total Cases": "60", "Deceased": "2", "Recovered": "4", "Total Cases/1M pop": "0", "Deaths/1M pop": "0", "Total Tests": "0", "Last Updated": "2020-05-14 02:22:22"}}, {"type": "Feature", "geometry": {"type": "Point", "coordinates": [123.981597, 10.299865]}, "properties": {"Data Type": "Regional", "Country": "Philippines", "City": "Lapu-Lapu, Cebu", "Current Cases": "39", "Total Cases": "58", "Deceased": "1", "Recovered": "18", "Total Cases/1M pop": "0", "Deaths/1M pop": "0", "Total Tests": "0", "Last Updated": "2020-05-14 02:22:22"}}, {"type": "Feature", "geometry": {"type": "Point", "coordinates": [120.947969, 14.657186]}, "properties": {"Data Type": "Regional", "Country": "Philippines", "City": "Navotas", "Current Cases": "41", "Total Cases": "54", "Deceased": "8", "Recovered": "5", "Total Cases/1M pop": "0", "Deaths/1M pop": "0", "Total Tests": "0", "Last Updated": "2020-05-14 02:22:22"}}, {"type": "Feature", "geometry": {"type": "Point", "coordinates": [120.931258, 14.419321]}, "properties": {"Data Type": "Regional", "Country": "Philippines", "City": "Imus, Cavite", "Current Cases": "33", "Total Cases": "48", "Deceased": "4", "Recovered": "11", "Total Cases/1M pop": "0", "Deaths/1M pop": "0", "Total Tests": "0", "Last Updated": "2020-05-14 02:22:22"}}, {"type": "Feature", "geometry": {"type": "Point", "coordinates": [120.937087, 14.327082]}, "properties": {"Data Type": "Regional", "Country": "Philippines", "City": "Dasmari\u00f1as, Cavite", "Current Cases": "34", "Total Cases": "46", "Deceased": "3", "Recovered": "9", "Total Cases/1M pop": "0", "Deaths/1M pop": "0", "Total Tests": "0", "Last Updated": "2020-05-14 02:22:22"}}, {"type": "Feature", "geometry": {"type": "Point", "coordinates": [121.167568, 14.214306]}, "properties": {"Data Type": "Regional", "Country": "Philippines", "City": "Calamba, Laguna", "Current Cases": "36", "Total Cases": "46", "Deceased": "1", "Recovered": "9", "Total Cases/1M pop": "0", "Deaths/1M pop": "0", "Total Tests": "0", "Last Updated": "2020-05-14 02:22:22"}}, {"type": "Feature", "geometry": {"type": "Point", "coordinates": [121.139961, 14.557798]}, "properties": {"Data Type": "Regional", "Country": "Philippines", "City": "Taytay, Rizal", "Current Cases": "33", "Total Cases": "44", "Deceased": "4", "Recovered": "7", "Total Cases/1M pop": "0", "Deaths/1M pop": "0", "Total Tests": "0", "Last Updated": "2020-05-14 02:22:22"}}, {"type": "Feature", "geometry": {"type": "Point", "coordinates": [121.163467, 13.939599]}, "properties": {"Data Type": "Regional", "Country": "Philippines", "City": "Lipa, Batangas", "Current Cases": "30", "Total Cases": "42", "Deceased": "6", "Recovered": "6", "Total Cases/1M pop": "0", "Deaths/1M pop": "0", "Total Tests": "0", "Last Updated": "2020-05-14 02:22:22"}}, {"type": "Feature", "geometry": {"type": "Point", "coordinates": [121.22143, 14.177565]}, "properties": {"Data Type": "Regional", "Country": "Philippines", "City": "Los Ba\u00f1os, Laguna", "Current Cases": "35", "Total Cases": "40", "Deceased": "1", "Recovered": "4", "Total Cases/1M pop": "0", "Deaths/1M pop": "0", "Total Tests": "0", "Last Updated": "2020-05-14 02:22:22"}}, {"type": "Feature", "geometry": {"type": "Point", "coordinates": [121.192119, 14.465142]}, "properties": {"Data Type": "Regional", "Country": "Philippines", "City": "Binangonan, Rizal", "Current Cases": "32", "Total Cases": "38", "Deceased": "2", "Recovered": "4", "Total Cases/1M pop": "0", "Deaths/1M pop": "0", "Total Tests": "0", "Last Updated": "2020-05-14 02:22:22"}}, {"type": "Feature", "geometry": {"type": "Point", "coordinates": [121.079537, 14.314917]}, "properties": {"Data Type": "Regional", "Country": "Philippines", "City": "Bi\u00f1an, Laguna", "Current Cases": "28", "Total Cases": "36", "Deceased": "1", "Recovered": "7", "Total Cases/1M pop": "0", "Deaths/1M pop": "0", "Total Tests": "0", "Last Updated": "2020-05-14 02:22:22"}}, {"type": "Feature", "geometry": {"type": "Point", "coordinates": [121.112131, 14.314353]}, "properties": {"Data Type": "Regional", "Country": "Philippines", "City": "Santa Rosa, Laguna", "Current Cases": "27", "Total Cases": "36", "Deceased": "0", "Recovered": "9", "Total Cases/1M pop": "0", "Deaths/1M pop": "0", "Total Tests": "0", "Last Updated": "2020-05-14 02:22:22"}}, {"type": "Feature", "geometry": {"type": "Point", "coordinates": [120.540969, 14.679567]}, "properties": {"Data Type": "Regional", "Country": "Philippines", "City": "Balanga, Bataan", "Current Cases": "15", "Total Cases": "33", "Deceased": "1", "Recovered": "17", "Total Cases/1M pop": "0", "Deaths/1M pop": "0", "Total Tests": "0", "Last Updated": "2020-05-14 02:22:22"}}, {"type": "Feature", "geometry": {"type": "Point", "coordinates": [120.593394, 16.412007]}, "properties": {"Data Type": "Regional", "Country": "Philippines", "City": "Baguio", "Current Cases": "3", "Total Cases": "30", "Deceased": "1", "Recovered": "26", "Total Cases/1M pop": "0", "Deaths/1M pop": "0", "Total Tests": "0", "Last Updated": "2020-05-14 02:22:22"}}, {"type": "Feature", "geometry": {"type": "Point", "coordinates": [121.066186, 14.544491]}, "properties": {"Data Type": "Regional", "Country": "Philippines", "City": "Pateros", "Current Cases": "17", "Total Cases": "30", "Deceased": "2", "Recovered": "11", "Total Cases/1M pop": "0", "Deaths/1M pop": "0", "Total Tests": "0", "Last Updated": "2020-05-14 02:22:22"}}, {"type": "Feature", "geometry": {"type": "Point", "coordinates": [121.614179, 13.926043]}, "properties": {"Data Type": "Regional", "Country": "Philippines", "City": "Lucena, Quezon", "Current Cases": "26", "Total Cases": "29", "Deceased": "0", "Recovered": "3", "Total Cases/1M pop": "0", "Deaths/1M pop": "0", "Total Tests": "0", "Last Updated": "2020-05-14 02:22:22"}}, {"type": "Feature", "geometry": {"type": "Point", "coordinates": [121.132031, 14.772501]}, "properties": {"Data Type": "Regional", "Country": "Philippines", "City": "Rodriguez (Montalban)", "Current Cases": "21", "Total Cases": "29", "Deceased": "1", "Recovered": "7", "Total Cases/1M pop": "0", "Deaths/1M pop": "0", "Total Tests": "0", "Last Updated": "2020-05-14 02:22:22"}}, {"type": "Feature", "geometry": {"type": "Point", "coordinates": [121.117763, 14.69545]}, "properties": {"Data Type": "Regional", "Country": "Philippines", "City": "San Mateo, Rizal", "Current Cases": "19", "Total Cases": "29", "Deceased": "4", "Recovered": "6", "Total Cases/1M pop": "0", "Deaths/1M pop": "0", "Total Tests": "0", "Last Updated": "2020-05-14 02:22:22"}}, {"type": "Feature", "geometry": {"type": "Point", "coordinates": [122.568614, 10.702672]}, "properties": {"Data Type": "Regional", "Country": "Philippines", "City": "Iloilo City", "Current Cases": "19", "Total Cases": "26", "Deceased": "1", "Recovered": "6", "Total Cases/1M pop": "0", "Deaths/1M pop": "0", "Total Tests": "0", "Last Updated": "2020-05-14 02:22:22"}}, {"type": "Feature", "geometry": {"type": "Point", "coordinates": [121.082638, 13.65979]}, "properties": {"Data Type": "Regional", "Country": "Philippines", "City": "Batangas City", "Current Cases": "15", "Total Cases": "25", "Deceased": "1", "Recovered": "9", "Total Cases/1M pop": "0", "Deaths/1M pop": "0", "Total Tests": "0", "Last Updated": "2020-05-14 02:22:22"}}, {"type": "Feature", "geometry": {"type": "Point", "coordinates": [121.414977, 14.28181]}, "properties": {"Data Type": "Regional", "Country": "Philippines", "City": "Santa Cruz, Laguna", "Current Cases": "23", "Total Cases": "24", "Deceased": "0", "Recovered": "1", "Total Cases/1M pop": "0", "Deaths/1M pop": "0", "Total Tests": "0", "Last Updated": "2020-05-14 02:22:22"}}, {"type": "Feature", "geometry": {"type": "Point", "coordinates": [121.049157, 14.811043]}, "properties": {"Data Type": "Regional", "Country": "Philippines", "City": "San Jose del Monte, Bulacan", "Current Cases": "13", "Total Cases": "23", "Deceased": "3", "Recovered": "7", "Total Cases/1M pop": "0", "Deaths/1M pop": "0", "Total Tests": "0", "Last Updated": "2020-05-14 02:22:22"}}, {"type": "Feature", "geometry": {"type": "Point", "coordinates": [121.123571, 14.279554]}, "properties": {"Data Type": "Regional", "Country": "Philippines", "City": "Cabuyao, Laguna", "Current Cases": "21", "Total Cases": "23", "Deceased": "1", "Recovered": "1", "Total Cases/1M pop": "0", "Deaths/1M pop": "0", "Total Tests": "0", "Last Updated": "2020-05-14 02:22:22"}}, {"type": "Feature", "geometry": {"type": "Point", "coordinates": [120.906185, 14.32676]}, "properties": {"Data Type": "Regional", "Country": "Philippines", "City": "General Trias, Cavite", "Current Cases": "11", "Total Cases": "20", "Deceased": "3", "Recovered": "6", "Total Cases/1M pop": "0", "Deaths/1M pop": "0", "Total Tests": "0", "Last Updated": "2020-05-14 02:22:22"}}, {"type": "Feature", "geometry": {"type": "Point", "coordinates": [123.73431, 13.13886]}, "properties": {"Data Type": "Regional", "Country": "Philippines", "City": "Legazpi, Albay", "Current Cases": "17", "Total Cases": "19", "Deceased": "1", "Recovered": "1", "Total Cases/1M pop": "0", "Deaths/1M pop": "0", "Total Tests": "0", "Last Updated": "2020-05-14 02:22:22"}}, {"type": "Feature", "geometry": {"type": "Point", "coordinates": [120.968426, 15.490505]}, "properties": {"Data Type": "Regional", "Country": "Philippines", "City": "Cabanatuan, Nueva Ecija", "Current Cases": "15", "Total Cases": "19", "Deceased": "0", "Recovered": "4", "Total Cases/1M pop": "0", "Deaths/1M pop": "0", "Total Tests": "0", "Last Updated": "2020-05-14 02:22:22"}}, {"type": "Feature", "geometry": {"type": "Point", "coordinates": [120.693804, 15.028301]}, "properties": {"Data Type": "Regional", "Country": "Philippines", "City": "San Fernando, Pampanga", "Current Cases": "12", "Total Cases": "19", "Deceased": "1", "Recovered": "6", "Total Cases/1M pop": "0", "Deaths/1M pop": "0", "Total Tests": "0", "Last Updated": "2020-05-14 02:22:22"}}, {"type": "Feature", "geometry": {"type": "Point", "coordinates": [121.325597, 14.07005]}, "properties": {"Data Type": "Regional", "Country": "Philippines", "City": "San Pablo, Laguna", "Current Cases": "16", "Total Cases": "18", "Deceased": "1", "Recovered": "1", "Total Cases/1M pop": "0", "Deaths/1M pop": "0", "Total Tests": "0", "Last Updated": "2020-05-14 02:22:22"}}, {"type": "Feature", "geometry": {"type": "Point", "coordinates": [120.811369, 14.843759]}, "properties": {"Data Type": "Regional", "Country": "Philippines", "City": "Malolos, Bulacan", "Current Cases": "11", "Total Cases": "17", "Deceased": "4", "Recovered": "2", "Total Cases/1M pop": "0", "Deaths/1M pop": "0", "Total Tests": "0", "Last Updated": "2020-05-14 02:22:22"}}, {"type": "Feature", "geometry": {"type": "Point", "coordinates": [120.94713, 14.756375]}, "properties": {"Data Type": "Regional", "Country": "Philippines", "City": "Marilao, Bulacan", "Current Cases": "11", "Total Cases": "16", "Deceased": "3", "Recovered": "2", "Total Cases/1M pop": "0", "Deaths/1M pop": "0", "Total Tests": "0", "Last Updated": "2020-05-14 02:22:22"}}, {"type": "Feature", "geometry": {"type": "Point", "coordinates": [120.28352, 14.831468]}, "properties": {"Data Type": "Regional", "Country": "Philippines", "City": "Olongapo, Zambales", "Current Cases": "10", "Total Cases": "14", "Deceased": "1", "Recovered": "3", "Total Cases/1M pop": "0", "Deaths/1M pop": "0", "Total Tests": "0", "Last Updated": "2020-05-14 02:22:22"}}, {"type": "Feature", "geometry": {"type": "Point", "coordinates": [121.269694, 14.141263]}, "properties": {"Data Type": "Regional", "Country": "Philippines", "City": "Bay, Laguna", "Current Cases": "13", "Total Cases": "13", "Deceased": "0", "Recovered": "0", "Total Cases/1M pop": "0", "Deaths/1M pop": "0", "Total Tests": "0", "Last Updated": "2020-05-14 02:22:22"}}, {"type": "Feature", "geometry": {"type": "Point", "coordinates": [122.951379, 10.676284]}, "properties": {"Data Type": "Regional", "Country": "Philippines", "City": "Bacolod", "Current Cases": "4", "Total Cases": "13", "Deceased": "3", "Recovered": "6", "Total Cases/1M pop": "0", "Deaths/1M pop": "0", "Total Tests": "0", "Last Updated": "2020-05-14 02:22:22"}}, {"type": "Feature", "geometry": {"type": "Point", "coordinates": [121.153981, 14.525133]}, "properties": {"Data Type": "Regional", "Country": "Philippines", "City": "Angono, Rizal", "Current Cases": "8", "Total Cases": "13", "Deceased": "2", "Recovered": "3", "Total Cases/1M pop": "0", "Deaths/1M pop": "0", "Total Tests": "0", "Last Updated": "2020-05-14 02:22:22"}}, {"type": "Feature", "geometry": {"type": "Point", "coordinates": [124.702431, 11.893982]}, "properties": {"Data Type": "Regional", "Country": "Philippines", "City": "Tarangnan, Samar", "Current Cases": "11", "Total Cases": "13", "Deceased": "0", "Recovered": "2", "Total Cases/1M pop": "0", "Deaths/1M pop": "0", "Total Tests": "0", "Last Updated": "2020-05-14 02:22:22"}}, {"type": "Feature", "geometry": {"type": "Point", "coordinates": [120.632274, 14.073458]}, "properties": {"Data Type": "Regional", "Country": "Philippines", "City": "Nasugbu, Batangas", "Current Cases": "6", "Total Cases": "12", "Deceased": "3", "Recovered": "3", "Total Cases/1M pop": "0", "Deaths/1M pop": "0", "Total Tests": "0", "Last Updated": "2020-05-14 02:22:22"}}, {"type": "Feature", "geometry": {"type": "Point", "coordinates": [121.729735, 17.612538]}, "properties": {"Data Type": "Regional", "Country": "Philippines", "City": "Tuguegarao, Cagayan", "Current Cases": "2", "Total Cases": "12", "Deceased": "0", "Recovered": "10", "Total Cases/1M pop": "0", "Deaths/1M pop": "0", "Total Tests": "0", "Last Updated": "2020-05-14 02:22:22"}}, {"type": "Feature", "geometry": {"type": "Point", "coordinates": [123.602969, 13.133358]}, "properties": {"Data Type": "Regional", "Country": "Philippines", "City": "Daraga (Locsin), Albay", "Current Cases": "10", "Total Cases": "11", "Deceased": "0", "Recovered": "1", "Total Cases/1M pop": "0", "Deaths/1M pop": "0", "Total Tests": "0", "Last Updated": "2020-05-14 02:22:22"}}, {"type": "Feature", "geometry": {"type": "Point", "coordinates": [120.957163, 14.734501]}, "properties": {"Data Type": "Regional", "Country": "Philippines", "City": "Meycauayan, Bulacan", "Current Cases": "7", "Total Cases": "11", "Deceased": "2", "Recovered": "2", "Total Cases/1M pop": "0", "Deaths/1M pop": "0", "Total Tests": "0", "Last Updated": "2020-05-14 02:22:22"}}, {"type": "Feature", "geometry": {"type": "Point", "coordinates": [120.960615, 14.8205]}, "properties": {"Data Type": "Regional", "Country": "Philippines", "City": "Santa Maria, Bulacan", "Current Cases": "8", "Total Cases": "11", "Deceased": "1", "Recovered": "2", "Total Cases/1M pop": "0", "Deaths/1M pop": "0", "Total Tests": "0", "Last Updated": "2020-05-14 02:22:22"}}, {"type": "Feature", "geometry": {"type": "Point", "coordinates": [120.908915, 14.482032]}, "properties": {"Data Type": "Regional", "Country": "Philippines", "City": "Cavite City, Cavite", "Current Cases": "10", "Total Cases": "11", "Deceased": "1", "Recovered": "0", "Total Cases/1M pop": "0", "Deaths/1M pop": "0", "Total Tests": "0", "Last Updated": "2020-05-14 02:22:22"}}, {"type": "Feature", "geometry": {"type": "Point", "coordinates": [120.536204, 14.801218]}, "properties": {"Data Type": "Regional", "Country": "Philippines", "City": "Orani, Bataan", "Current Cases": "4", "Total Cases": "10", "Deceased": "1", "Recovered": "5", "Total Cases/1M pop": "0", "Deaths/1M pop": "0", "Total Tests": "0", "Last Updated": "2020-05-14 02:22:22"}}, {"type": "Feature", "geometry": {"type": "Point", "coordinates": [121.152822, 14.085328]}, "properties": {"Data Type": "Regional", "Country": "Philippines", "City": "Tanauan, Batangas", "Current Cases": "4", "Total Cases": "10", "Deceased": "0", "Recovered": "6", "Total Cases/1M pop": "0", "Deaths/1M pop": "0", "Total Tests": "0", "Last Updated": "2020-05-14 02:22:22"}}, {"type": "Feature", "geometry": {"type": "Point", "coordinates": [120.897041, 14.958504]}, "properties": {"Data Type": "Regional", "Country": "Philippines", "City": "Baliuag, Bulacan", "Current Cases": "4", "Total Cases": "10", "Deceased": "0", "Recovered": "6", "Total Cases/1M pop": "0", "Deaths/1M pop": "0", "Total Tests": "0", "Last Updated": "2020-05-14 02:22:22"}}, {"type": "Feature", "geometry": {"type": "Point", "coordinates": [120.926457, 14.79964]}, "properties": {"Data Type": "Regional", "Country": "Philippines", "City": "Bocaue, Bulacan", "Current Cases": "10", "Total Cases": "10", "Deceased": "0", "Recovered": "0", "Total Cases/1M pop": "0", "Deaths/1M pop": "0", "Total Tests": "0", "Last Updated": "2020-05-14 02:22:22"}}, {"type": "Feature", "geometry": {"type": "Point", "coordinates": [120.815263, 14.36889]}, "properties": {"Data Type": "Regional", "Country": "Philippines", "City": "Tanza, Cavite", "Current Cases": "5", "Total Cases": "10", "Deceased": "1", "Recovered": "4", "Total Cases/1M pop": "0", "Deaths/1M pop": "0", "Total Tests": "0", "Last Updated": "2020-05-14 02:22:22"}}, {"type": "Feature", "geometry": {"type": "Point", "coordinates": [123.79749, 10.245018]}, "properties": {"Data Type": "Regional", "Country": "Philippines", "City": "Minglanilla, Cebu", "Current Cases": "9", "Total Cases": "10", "Deceased": "1", "Recovered": "0", "Total Cases/1M pop": "0", "Deaths/1M pop": "0", "Total Tests": "0", "Last Updated": "2020-05-14 02:22:22"}}, {"type": "Feature", "geometry": {"type": "Point", "coordinates": [123.847934, 10.245737]}, "properties": {"Data Type": "Regional", "Country": "Philippines", "City": "Talisay, Cebu", "Current Cases": "8", "Total Cases": "10", "Deceased": "2", "Recovered": "0", "Total Cases/1M pop": "0", "Deaths/1M pop": "0", "Total Tests": "0", "Last Updated": "2020-05-14 02:22:22"}}, {"type": "Feature", "geometry": {"type": "Point", "coordinates": [125.811181, 7.447023]}, "properties": {"Data Type": "Regional", "Country": "Philippines", "City": "Tagum, Davao del Norte", "Current Cases": "0", "Total Cases": "10", "Deceased": "1", "Recovered": "9", "Total Cases/1M pop": "0", "Deaths/1M pop": "0", "Total Tests": "0", "Last Updated": "2020-05-14 02:22:22"}}, {"type": "Feature", "geometry": {"type": "Point", "coordinates": [121.310997, 14.135029]}, "properties": {"Data Type": "Regional", "Country": "Philippines", "City": "Calauan, Laguna", "Current Cases": "9", "Total Cases": "10", "Deceased": "0", "Recovered": "1", "Total Cases/1M pop": "0", "Deaths/1M pop": "0", "Total Tests": "0", "Last Updated": "2020-05-14 02:22:22"}}, {"type": "Feature", "geometry": {"type": "Point", "coordinates": [120.587918, 15.139966]}, "properties": {"Data Type": "Regional", "Country": "Philippines", "City": "Angeles, Pampanga", "Current Cases": "6", "Total Cases": "10", "Deceased": "0", "Recovered": "4", "Total Cases/1M pop": "0", "Deaths/1M pop": "0", "Total Tests": "0", "Last Updated": "2020-05-14 02:22:22"}}, {"type": "Feature", "geometry": {"type": "Point", "coordinates": [121.207305, 14.558828]}, "properties": {"Data Type": "Regional", "Country": "Philippines", "City": "Teresa, Rizal", "Current Cases": "10", "Total Cases": "10", "Deceased": "0", "Recovered": "0", "Total Cases/1M pop": "0", "Deaths/1M pop": "0", "Total Tests": "0", "Last Updated": "2020-05-14 02:22:22"}}, {"type": "Feature", "geometry": {"type": "Point", "coordinates": [120.589556, 15.485997]}, "properties": {"Data Type": "Regional", "Country": "Philippines", "City": "Tarlac City", "Current Cases": "8", "Total Cases": "10", "Deceased": "1", "Recovered": "1", "Total Cases/1M pop": "0", "Deaths/1M pop": "0", "Total Tests": "0", "Last Updated": "2020-05-14 02:22:22"}}, {"type": "Feature", "geometry": {"type": "Point", "coordinates": [120.54218, 14.769377]}, "properties": {"Data Type": "Regional", "Country": "Philippines", "City": "Samal, Bataan", "Current Cases": "6", "Total Cases": "9", "Deceased": "0", "Recovered": "3", "Total Cases/1M pop": "0", "Deaths/1M pop": "0", "Total Tests": "0", "Last Updated": "2020-05-14 02:22:22"}}, {"type": "Feature", "geometry": {"type": "Point", "coordinates": [120.591681, 16.471188]}, "properties": {"Data Type": "Regional", "Country": "Philippines", "City": "La Trinidad, Benguet", "Current Cases": "5", "Total Cases": "9", "Deceased": "0", "Recovered": "4", "Total Cases/1M pop": "0", "Deaths/1M pop": "0", "Total Tests": "0", "Last Updated": "2020-05-14 02:22:22"}}, {"type": "Feature", "geometry": {"type": "Point", "coordinates": [120.97415, 14.223624]}, "properties": {"Data Type": "Regional", "Country": "Philippines", "City": "Silang, Cavite", "Current Cases": "6", "Total Cases": "9", "Deceased": "1", "Recovered": "2", "Total Cases/1M pop": "0", "Deaths/1M pop": "0", "Total Tests": "0", "Last Updated": "2020-05-14 02:22:22"}}, {"type": "Feature", "geometry": {"type": "Point", "coordinates": [121.177848, 13.407048]}, "properties": {"Data Type": "Regional", "Country": "Philippines", "City": "Calapan, Oriental Mindoro", "Current Cases": "4", "Total Cases": "9", "Deceased": "1", "Recovered": "4", "Total Cases/1M pop": "0", "Deaths/1M pop": "0", "Total Tests": "0", "Last Updated": "2020-05-14 02:22:22"}}, {"type": "Feature", "geometry": {"type": "Point", "coordinates": [120.338339, 16.061015]}, "properties": {"Data Type": "Regional", "Country": "Philippines", "City": "Dagupan, Pangasinan", "Current Cases": "5", "Total Cases": "9", "Deceased": "0", "Recovered": "4", "Total Cases/1M pop": "0", "Deaths/1M pop": "0", "Total Tests": "0", "Last Updated": "2020-05-14 02:22:22"}}, {"type": "Feature", "geometry": {"type": "Point", "coordinates": [122.080948, 11.714256]}, "properties": {"Data Type": "Regional", "Country": "Philippines", "City": "Pandan, Antique", "Current Cases": "7", "Total Cases": "8", "Deceased": "0", "Recovered": "1", "Total Cases/1M pop": "0", "Deaths/1M pop": "0", "Total Tests": "0", "Last Updated": "2020-05-14 02:22:22"}}, {"type": "Feature", "geometry": {"type": "Point", "coordinates": [120.490354, 14.43561]}, "properties": {"Data Type": "Regional", "Country": "Philippines", "City": "Mariveles, Bataan", "Current Cases": "7", "Total Cases": "8", "Deceased": "0", "Recovered": "1", "Total Cases/1M pop": "0", "Deaths/1M pop": "0", "Total Tests": "0", "Last Updated": "2020-05-14 02:22:22"}}, {"type": "Feature", "geometry": {"type": "Point", "coordinates": [121.362587, 14.231358]}, "properties": {"Data Type": "Regional", "Country": "Philippines", "City": "Pila, Laguna", "Current Cases": "6", "Total Cases": "8", "Deceased": "0", "Recovered": "2", "Total Cases/1M pop": "0", "Deaths/1M pop": "0", "Total Tests": "0", "Last Updated": "2020-05-14 02:22:22"}}, {"type": "Feature", "geometry": {"type": "Point", "coordinates": [120.947943, 15.312281]}, "properties": {"Data Type": "Regional", "Country": "Philippines", "City": "Gapan, Nueva Ecija", "Current Cases": "4", "Total Cases": "8", "Deceased": "0", "Recovered": "4", "Total Cases/1M pop": "0", "Deaths/1M pop": "0", "Total Tests": "0", "Last Updated": "2020-05-14 02:22:22"}}, {"type": "Feature", "geometry": {"type": "Point", "coordinates": [121.591836, 14.026347]}, "properties": {"Data Type": "Regional", "Country": "Philippines", "City": "Tayabas, Quezon", "Current Cases": "6", "Total Cases": "8", "Deceased": "0", "Recovered": "2", "Total Cases/1M pop": "0", "Deaths/1M pop": "0", "Total Tests": "0", "Last Updated": "2020-05-14 02:22:22"}}, {"type": "Feature", "geometry": {"type": "Point", "coordinates": [121.230341, 14.484908]}, "properties": {"Data Type": "Regional", "Country": "Philippines", "City": "Cardona, Rizal", "Current Cases": "7", "Total Cases": "8", "Deceased": "0", "Recovered": "1", "Total Cases/1M pop": "0", "Deaths/1M pop": "0", "Total Tests": "0", "Last Updated": "2020-05-14 02:22:22"}}, {"type": "Feature", "geometry": {"type": "Point", "coordinates": [120.577232, 14.62157]}, "properties": {"Data Type": "Regional", "Country": "Philippines", "City": "Orion, Bataan", "Current Cases": "3", "Total Cases": "7", "Deceased": "0", "Recovered": "4", "Total Cases/1M pop": "0", "Deaths/1M pop": "0", "Total Tests": "0", "Last Updated": "2020-05-14 02:22:22"}}, {"type": "Feature", "geometry": {"type": "Point", "coordinates": [123.185032, 13.624012]}, "properties": {"Data Type": "Regional", "Country": "Philippines", "City": "Naga, Camarines Sur", "Current Cases": "6", "Total Cases": "7", "Deceased": "1", "Recovered": "0", "Total Cases/1M pop": "0", "Deaths/1M pop": "0", "Total Tests": "0", "Last Updated": "2020-05-14 02:22:22"}}, {"type": "Feature", "geometry": {"type": "Point", "coordinates": [120.565431, 14.23675]}, "properties": {"Data Type": "Regional", "Country": "Philippines", "City": "Maragondon, Cavite", "Current Cases": "6", "Total Cases": "7", "Deceased": "0", "Recovered": "1", "Total Cases/1M pop": "0", "Deaths/1M pop": "0", "Total Tests": "0", "Last Updated": "2020-05-14 02:22:22"}}, {"type": "Feature", "geometry": {"type": "Point", "coordinates": [121.443062, 14.127713]}, "properties": {"Data Type": "Regional", "Country": "Philippines", "City": "Liliw, Laguna", "Current Cases": "6", "Total Cases": "7", "Deceased": "0", "Recovered": "1", "Total Cases/1M pop": "0", "Deaths/1M pop": "0", "Total Tests": "0", "Last Updated": "2020-05-14 02:22:22"}}, {"type": "Feature", "geometry": {"type": "Point", "coordinates": [124.285403, 8.00462]}, "properties": {"Data Type": "Regional", "Country": "Philippines", "City": "Marawi, Lanao del Sur", "Current Cases": "0", "Total Cases": "7", "Deceased": "1", "Recovered": "6", "Total Cases/1M pop": "0", "Deaths/1M pop": "0", "Total Tests": "0", "Last Updated": "2020-05-14 02:22:22"}}, {"type": "Feature", "geometry": {"type": "Point", "coordinates": [124.642132, 8.475488]}, "properties": {"Data Type": "Regional", "Country": "Philippines", "City": "Cagayan de Oro", "Current Cases": "3", "Total Cases": "7", "Deceased": "3", "Recovered": "1", "Total Cases/1M pop": "0", "Deaths/1M pop": "0", "Total Tests": "0", "Last Updated": "2020-05-14 02:22:22"}}, {"type": "Feature", "geometry": {"type": "Point", "coordinates": [122.288111, 13.956916]}, "properties": {"Data Type": "Regional", "Country": "Philippines", "City": "Calauag, Quezon", "Current Cases": "6", "Total Cases": "7", "Deceased": "1", "Recovered": "0", "Total Cases/1M pop": "0", "Deaths/1M pop": "0", "Total Tests": "0", "Last Updated": "2020-05-14 02:22:22"}}, {"type": "Feature", "geometry": {"type": "Point", "coordinates": [121.422493, 13.933475]}, "properties": {"Data Type": "Regional", "Country": "Philippines", "City": "Candelaria, Quezon", "Current Cases": "5", "Total Cases": "7", "Deceased": "1", "Recovered": "1", "Total Cases/1M pop": "0", "Deaths/1M pop": "0", "Total Tests": "0", "Last Updated": "2020-05-14 02:22:22"}}, {"type": "Feature", "geometry": {"type": "Point", "coordinates": [121.451193, 11.979476]}, "properties": {"Data Type": "Regional", "Country": "Philippines", "City": "Caluya, Antique", "Current Cases": "3", "Total Cases": "6", "Deceased": "0", "Recovered": "3", "Total Cases/1M pop": "0", "Deaths/1M pop": "0", "Total Tests": "0", "Last Updated": "2020-05-14 02:22:22"}}, {"type": "Feature", "geometry": {"type": "Point", "coordinates": [120.594956, 14.562524]}, "properties": {"Data Type": "Regional", "Country": "Philippines", "City": "Limay, Bataan", "Current Cases": "5", "Total Cases": "6", "Deceased": "0", "Recovered": "1", "Total Cases/1M pop": "0", "Deaths/1M pop": "0", "Total Tests": "0", "Last Updated": "2020-05-14 02:22:22"}}, {"type": "Feature", "geometry": {"type": "Point", "coordinates": [120.877712, 14.794871]}, "properties": {"Data Type": "Regional", "Country": "Philippines", "City": "Bulakan, Bulacan", "Current Cases": "2", "Total Cases": "6", "Deceased": "0", "Recovered": "4", "Total Cases/1M pop": "0", "Deaths/1M pop": "0", "Total Tests": "0", "Last Updated": "2020-05-14 02:22:22"}}, {"type": "Feature", "geometry": {"type": "Point", "coordinates": [120.898127, 14.443821]}, "properties": {"Data Type": "Regional", "Country": "Philippines", "City": "Kawit, Cavite", "Current Cases": "5", "Total Cases": "6", "Deceased": "1", "Recovered": "0", "Total Cases/1M pop": "0", "Deaths/1M pop": "0", "Total Tests": "0", "Last Updated": "2020-05-14 02:22:22"}}, {"type": "Feature", "geometry": {"type": "Point", "coordinates": [120.870613, 14.277627]}, "properties": {"Data Type": "Regional", "Country": "Philippines", "City": "Trece Martires, Cavite", "Current Cases": "5", "Total Cases": "6", "Deceased": "1", "Recovered": "0", "Total Cases/1M pop": "0", "Deaths/1M pop": "0", "Total Tests": "0", "Last Updated": "2020-05-14 02:22:22"}}, {"type": "Feature", "geometry": {"type": "Point", "coordinates": [121.573483, 14.310463]}, "properties": {"Data Type": "Regional", "Country": "Philippines", "City": "Lumban, Laguna", "Current Cases": "5", "Total Cases": "6", "Deceased": "0", "Recovered": "1", "Total Cases/1M pop": "0", "Deaths/1M pop": "0", "Total Tests": "0", "Last Updated": "2020-05-14 02:22:22"}}, {"type": "Feature", "geometry": {"type": "Point", "coordinates": [121.387732, 14.138906]}, "properties": {"Data Type": "Regional", "Country": "Philippines", "City": "Nagcarlan, Laguna", "Current Cases": "3", "Total Cases": "6", "Deceased": "0", "Recovered": "3", "Total Cases/1M pop": "0", "Deaths/1M pop": "0", "Total Tests": "0", "Last Updated": "2020-05-14 02:22:22"}}, {"type": "Feature", "geometry": {"type": "Point", "coordinates": [124.235171, 7.197034]}, "properties": {"Data Type": "Regional", "Country": "Philippines", "City": "Cotabato City", "Current Cases": "0", "Total Cases": "6", "Deceased": "0", "Recovered": "6", "Total Cases/1M pop": "0", "Deaths/1M pop": "0", "Total Tests": "0", "Last Updated": "2020-05-14 02:22:22"}}, {"type": "Feature", "geometry": {"type": "Point", "coordinates": [120.414019, 15.688795]}, "properties": {"Data Type": "Regional", "Country": "Philippines", "City": "Camiling, Tarlac", "Current Cases": "3", "Total Cases": "6", "Deceased": "0", "Recovered": "3", "Total Cases/1M pop": "0", "Deaths/1M pop": "0", "Total Tests": "0", "Last Updated": "2020-05-14 02:22:22"}}, {"type": "Feature", "geometry": {"type": "Point", "coordinates": [123.599946, 13.19046]}, "properties": {"Data Type": "Regional", "Country": "Philippines", "City": "Guinobatan, Albay", "Current Cases": "4", "Total Cases": "5", "Deceased": "1", "Recovered": "0", "Total Cases/1M pop": "0", "Deaths/1M pop": "0", "Total Tests": "0", "Last Updated": "2020-05-14 02:22:22"}}, {"type": "Feature", "geometry": {"type": "Point", "coordinates": [120.879292, 14.828949]}, "properties": {"Data Type": "Regional", "Country": "Philippines", "City": "Guiguinto, Bulacan", "Current Cases": "4", "Total Cases": "5", "Deceased": "0", "Recovered": "1", "Total Cases/1M pop": "0", "Deaths/1M pop": "0", "Total Tests": "0", "Last Updated": "2020-05-14 02:22:22"}}, {"type": "Feature", "geometry": {"type": "Point", "coordinates": [121.00691, 14.298321]}, "properties": {"Data Type": "Regional", "Country": "Philippines", "City": "General Mariano Alvarez, Cavite", "Current Cases": "4", "Total Cases": "5", "Deceased": "0", "Recovered": "1", "Total Cases/1M pop": "0", "Deaths/1M pop": "0", "Total Tests": "0", "Last Updated": "2020-05-14 02:22:22"}}, {"type": "Feature", "geometry": {"type": "Point", "coordinates": [120.771155, 14.315587]}, "properties": {"Data Type": "Regional", "Country": "Philippines", "City": "Naic, Cavite", "Current Cases": "4", "Total Cases": "5", "Deceased": "1", "Recovered": "0", "Total Cases/1M pop": "0", "Deaths/1M pop": "0", "Total Tests": "0", "Last Updated": "2020-05-14 02:22:22"}}, {"type": "Feature", "geometry": {"type": "Point", "coordinates": [122.47463, 11.055343]}, "properties": {"Data Type": "Regional", "Country": "Philippines", "City": "Lambunao, Iloilo", "Current Cases": "0", "Total Cases": "5", "Deceased": "1", "Recovered": "4", "Total Cases/1M pop": "0", "Deaths/1M pop": "0", "Total Tests": "0", "Last Updated": "2020-05-14 02:22:22"}}, {"type": "Feature", "geometry": {"type": "Point", "coordinates": [121.244534, 14.039995]}, "properties": {"Data Type": "Regional", "Country": "Philippines", "City": "Alaminos, Laguna", "Current Cases": "4", "Total Cases": "5", "Deceased": "0", "Recovered": "1", "Total Cases/1M pop": "0", "Deaths/1M pop": "0", "Total Tests": "0", "Last Updated": "2020-05-14 02:22:22"}}, {"type": "Feature", "geometry": {"type": "Point", "coordinates": [121.48313, 14.139287]}, "properties": {"Data Type": "Regional", "Country": "Philippines", "City": "Majayjay, Laguna", "Current Cases": "5", "Total Cases": "5", "Deceased": "0", "Recovered": "0", "Total Cases/1M pop": "0", "Deaths/1M pop": "0", "Total Tests": "0", "Last Updated": "2020-05-14 02:22:22"}}, {"type": "Feature", "geometry": {"type": "Point", "coordinates": [121.330404, 14.210916]}, "properties": {"Data Type": "Regional", "Country": "Philippines", "City": "Victoria, Laguna", "Current Cases": "5", "Total Cases": "5", "Deceased": "0", "Recovered": "0", "Total Cases/1M pop": "0", "Deaths/1M pop": "0", "Total Tests": "0", "Last Updated": "2020-05-14 02:22:22"}}, {"type": "Feature", "geometry": {"type": "Point", "coordinates": [120.600497, 14.937814]}, "properties": {"Data Type": "Regional", "Country": "Philippines", "City": "Lubao, Pampanga", "Current Cases": "5", "Total Cases": "5", "Deceased": "0", "Recovered": "0", "Total Cases/1M pop": "0", "Deaths/1M pop": "0", "Total Tests": "0", "Last Updated": "2020-05-14 02:22:22"}}, {"type": "Feature", "geometry": {"type": "Point", "coordinates": [120.41149, 15.788214]}, "properties": {"Data Type": "Regional", "Country": "Philippines", "City": "Bayambang, Pangasinan", "Current Cases": "0", "Total Cases": "5", "Deceased": "2", "Recovered": "3", "Total Cases/1M pop": "0", "Deaths/1M pop": "0", "Total Tests": "0", "Last Updated": "2020-05-14 02:22:22"}}, {"type": "Feature", "geometry": {"type": "Point", "coordinates": [120.552816, 14.666925]}, "properties": {"Data Type": "Regional", "Country": "Philippines", "City": "Pilar, Bataan", "Current Cases": "2", "Total Cases": "4", "Deceased": "0", "Recovered": "2", "Total Cases/1M pop": "0", "Deaths/1M pop": "0", "Total Tests": "0", "Last Updated": "2020-05-14 02:22:22"}}, {"type": "Feature", "geometry": {"type": "Point", "coordinates": [121.005973, 13.866076]}, "properties": {"Data Type": "Regional", "Country": "Philippines", "City": "Alitagtag, Batangas", "Current Cases": "2", "Total Cases": "4", "Deceased": "1", "Recovered": "1", "Total Cases/1M pop": "0", "Deaths/1M pop": "0", "Total Tests": "0", "Last Updated": "2020-05-14 02:22:22"}}, {"type": "Feature", "geometry": {"type": "Point", "coordinates": [121.007678, 13.792509]}, "properties": {"Data Type": "Regional", "Country": "Philippines", "City": "Bauan, Batangas", "Current Cases": "3", "Total Cases": "4", "Deceased": "0", "Recovered": "1", "Total Cases/1M pop": "0", "Deaths/1M pop": "0", "Total Tests": "0", "Last Updated": "2020-05-14 02:22:22"}}, {"type": "Feature", "geometry": {"type": "Point", "coordinates": [121.14533, 14.107844]}, "properties": {"Data Type": "Regional", "Country": "Philippines", "City": "Santo Tomas, Batangas", "Current Cases": "2", "Total Cases": "4", "Deceased": "0", "Recovered": "2", "Total Cases/1M pop": "0", "Deaths/1M pop": "0", "Total Tests": "0", "Last Updated": "2020-05-14 02:22:22"}}, {"type": "Feature", "geometry": {"type": "Point", "coordinates": [120.95574, 14.863342]}, "properties": {"Data Type": "Regional", "Country": "Philippines", "City": "Pandi, Bulacan", "Current Cases": "4", "Total Cases": "4", "Deceased": "0", "Recovered": "0", "Total Cases/1M pop": "0", "Deaths/1M pop": "0", "Total Tests": "0", "Last Updated": "2020-05-14 02:22:22"}}, {"type": "Feature", "geometry": {"type": "Point", "coordinates": [120.963865, 14.995005]}, "properties": {"Data Type": "Regional", "Country": "Philippines", "City": "San Rafael, Bulacan", "Current Cases": "3", "Total Cases": "4", "Deceased": "0", "Recovered": "1", "Total Cases/1M pop": "0", "Deaths/1M pop": "0", "Total Tests": "0", "Last Updated": "2020-05-14 02:22:22"}}, {"type": "Feature", "geometry": {"type": "Point", "coordinates": [121.056128, 14.315538]}, "properties": {"Data Type": "Regional", "Country": "Philippines", "City": "Carmona, Cavite", "Current Cases": "4", "Total Cases": "4", "Deceased": "0", "Recovered": "0", "Total Cases/1M pop": "0", "Deaths/1M pop": "0", "Total Tests": "0", "Last Updated": "2020-05-14 02:22:22"}}, {"type": "Feature", "geometry": {"type": "Point", "coordinates": [120.870775, 14.182963]}, "properties": {"Data Type": "Regional", "Country": "Philippines", "City": "Indang, Cavite", "Current Cases": "4", "Total Cases": "4", "Deceased": "0", "Recovered": "0", "Total Cases/1M pop": "0", "Deaths/1M pop": "0", "Total Tests": "0", "Last Updated": "2020-05-14 02:22:22"}}, {"type": "Feature", "geometry": {"type": "Point", "coordinates": [120.802426, 14.492987]}, "properties": {"Data Type": "Regional", "Country": "Philippines", "City": "Noveleta, Cavite", "Current Cases": "4", "Total Cases": "4", "Deceased": "0", "Recovered": "0", "Total Cases/1M pop": "0", "Deaths/1M pop": "0", "Total Tests": "0", "Last Updated": "2020-05-14 02:22:22"}}, {"type": "Feature", "geometry": {"type": "Point", "coordinates": [120.679003, 14.292744]}, "properties": {"Data Type": "Regional", "Country": "Philippines", "City": "Ternate, Cavite", "Current Cases": "4", "Total Cases": "4", "Deceased": "0", "Recovered": "0", "Total Cases/1M pop": "0", "Deaths/1M pop": "0", "Total Tests": "0", "Last Updated": "2020-05-14 02:22:22"}}, {"type": "Feature", "geometry": {"type": "Point", "coordinates": [123.949745, 10.359287]}, "properties": {"Data Type": "Regional", "Country": "Philippines", "City": "Consolacion, Cebu", "Current Cases": "3", "Total Cases": "4", "Deceased": "0", "Recovered": "1", "Total Cases/1M pop": "0", "Deaths/1M pop": "0", "Total Tests": "0", "Last Updated": "2020-05-14 02:22:22"}}, {"type": "Feature", "geometry": {"type": "Point", "coordinates": [124.166175, 8.186139]}, "properties": {"Data Type": "Regional", "Country": "Philippines", "City": "Iligan, Lanao del Norte", "Current Cases": "0", "Total Cases": "4", "Deceased": "2", "Recovered": "2", "Total Cases/1M pop": "0", "Deaths/1M pop": "0", "Total Tests": "0", "Last Updated": "2020-05-14 02:22:22"}}, {"type": "Feature", "geometry": {"type": "Point", "coordinates": [122.123647, 13.291212]}, "properties": {"Data Type": "Regional", "Country": "Philippines", "City": "Torrijos, Marinduque", "Current Cases": "0", "Total Cases": "4", "Deceased": "0", "Recovered": "4", "Total Cases/1M pop": "0", "Deaths/1M pop": "0", "Total Tests": "0", "Last Updated": "2020-05-14 02:22:22"}}, {"type": "Feature", "geometry": {"type": "Point", "coordinates": [120.906341, 15.309654]}, "properties": {"Data Type": "Regional", "Country": "Philippines", "City": "San Isidro, Nueva Ecija", "Current Cases": "3", "Total Cases": "4", "Deceased": "0", "Recovered": "1", "Total Cases/1M pop": "0", "Deaths/1M pop": "0", "Total Tests": "0", "Last Updated": "2020-05-14 02:22:22"}}, {"type": "Feature", "geometry": {"type": "Point", "coordinates": [120.623394, 14.976906]}, "properties": {"Data Type": "Regional", "Country": "Philippines", "City": "Guagua, Pampanga", "Current Cases": "3", "Total Cases": "4", "Deceased": "0", "Recovered": "1", "Total Cases/1M pop": "0", "Deaths/1M pop": "0", "Total Tests": "0", "Last Updated": "2020-05-14 02:22:22"}}, {"type": "Feature", "geometry": {"type": "Point", "coordinates": [120.541133, 15.072348]}, "properties": {"Data Type": "Regional", "Country": "Philippines", "City": "Porac, Pampanga", "Current Cases": "2", "Total Cases": "4", "Deceased": "0", "Recovered": "2", "Total Cases/1M pop": "0", "Deaths/1M pop": "0", "Total Tests": "0", "Last Updated": "2020-05-14 02:22:22"}}, {"type": "Feature", "geometry": {"type": "Point", "coordinates": [121.238086, 14.515137]}, "properties": {"Data Type": "Regional", "Country": "Philippines", "City": "Morong, Rizal", "Current Cases": "2", "Total Cases": "4", "Deceased": "0", "Recovered": "2", "Total Cases/1M pop": "0", "Deaths/1M pop": "0", "Total Tests": "0", "Last Updated": "2020-05-14 02:22:22"}}, {"type": "Feature", "geometry": {"type": "Point", "coordinates": [120.585818, 15.668654]}, "properties": {"Data Type": "Regional", "Country": "Philippines", "City": "Paniqui, Tarlac", "Current Cases": "4", "Total Cases": "4", "Deceased": "0", "Recovered": "0", "Total Cases/1M pop": "0", "Deaths/1M pop": "0", "Total Tests": "0", "Last Updated": "2020-05-14 02:22:22"}}, {"type": "Feature", "geometry": {"type": "Point", "coordinates": [125.527228, 8.94783]}, "properties": {"Data Type": "Regional", "Country": "Philippines", "City": "Butuan, Agusan del Norte", "Current Cases": "2", "Total Cases": "3", "Deceased": "0", "Recovered": "1", "Total Cases/1M pop": "0", "Deaths/1M pop": "0", "Total Tests": "0", "Last Updated": "2020-05-14 02:22:22"}}, {"type": "Feature", "geometry": {"type": "Point", "coordinates": [122.364062, 11.708906]}, "properties": {"Data Type": "Regional", "Country": "Philippines", "City": "Kalibo, Aklan", "Current Cases": "0", "Total Cases": "3", "Deceased": "0", "Recovered": "3", "Total Cases/1M pop": "0", "Deaths/1M pop": "0", "Total Tests": "0", "Last Updated": "2020-05-14 02:22:22"}}, {"type": "Feature", "geometry": {"type": "Point", "coordinates": [123.730201, 13.359308]}, "properties": {"Data Type": "Regional", "Country": "Philippines", "City": "Tabaco, Albay", "Current Cases": "0", "Total Cases": "3", "Deceased": "1", "Recovered": "2", "Total Cases/1M pop": "0", "Deaths/1M pop": "0", "Total Tests": "0", "Last Updated": "2020-05-14 02:22:22"}}, {"type": "Feature", "geometry": {"type": "Point", "coordinates": [120.53487, 14.721315]}, "properties": {"Data Type": "Regional", "Country": "Philippines", "City": "Abucay, Bataan", "Current Cases": "2", "Total Cases": "3", "Deceased": "0", "Recovered": "1", "Total Cases/1M pop": "0", "Deaths/1M pop": "0", "Total Tests": "0", "Last Updated": "2020-05-14 02:22:22"}}, {"type": "Feature", "geometry": {"type": "Point", "coordinates": [121.153746, 14.053797]}, "properties": {"Data Type": "Regional", "Country": "Philippines", "City": "Malvar, Batangas", "Current Cases": "3", "Total Cases": "3", "Deceased": "0", "Recovered": "0", "Total Cases/1M pop": "0", "Deaths/1M pop": "0", "Total Tests": "0", "Last Updated": "2020-05-14 02:22:22"}}, {"type": "Feature", "geometry": {"type": "Point", "coordinates": [120.763661, 14.915162]}, "properties": {"Data Type": "Regional", "Country": "Philippines", "City": "Calumpit, Bulacan", "Current Cases": "3", "Total Cases": "3", "Deceased": "0", "Recovered": "0", "Total Cases/1M pop": "0", "Deaths/1M pop": "0", "Total Tests": "0", "Last Updated": "2020-05-14 02:22:22"}}, {"type": "Feature", "geometry": {"type": "Point", "coordinates": [121.046568, 14.907034]}, "properties": {"Data Type": "Regional", "Country": "Philippines", "City": "Norzagaray, Bulacan", "Current Cases": "2", "Total Cases": "3", "Deceased": "1", "Recovered": "0", "Total Cases/1M pop": "0", "Deaths/1M pop": "0", "Total Tests": "0", "Last Updated": "2020-05-14 02:22:22"}}, {"type": "Feature", "geometry": {"type": "Point", "coordinates": [120.974221, 15.145746]}, "properties": {"Data Type": "Regional", "Country": "Philippines", "City": "San Miguel, Bulacan", "Current Cases": "1", "Total Cases": "3", "Deceased": "1", "Recovered": "1", "Total Cases/1M pop": "0", "Deaths/1M pop": "0", "Total Tests": "0", "Last Updated": "2020-05-14 02:22:22"}}, {"type": "Feature", "geometry": {"type": "Point", "coordinates": [122.930774, 11.436844]}, "properties": {"Data Type": "Regional", "Country": "Philippines", "City": "President Roxas, Capiz", "Current Cases": "0", "Total Cases": "3", "Deceased": "2", "Recovered": "1", "Total Cases/1M pop": "0", "Deaths/1M pop": "0", "Total Tests": "0", "Last Updated": "2020-05-14 02:22:22"}}, {"type": "Feature", "geometry": {"type": "Point", "coordinates": [120.838553, 14.118287]}, "properties": {"Data Type": "Regional", "Country": "Philippines", "City": "Alfonso, Cavite", "Current Cases": "2", "Total Cases": "3", "Deceased": "1", "Recovered": "0", "Total Cases/1M pop": "0", "Deaths/1M pop": "0", "Total Tests": "0", "Last Updated": "2020-05-14 02:22:22"}}, {"type": "Feature", "geometry": {"type": "Point", "coordinates": [120.804865, 14.452052]}, "properties": {"Data Type": "Regional", "Country": "Philippines", "City": "Rosario, Cavite", "Current Cases": "2", "Total Cases": "3", "Deceased": "0", "Recovered": "1", "Total Cases/1M pop": "0", "Deaths/1M pop": "0", "Total Tests": "0", "Last Updated": "2020-05-14 02:22:22"}}, {"type": "Feature", "geometry": {"type": "Point", "coordinates": [120.963555, 14.114981]}, "properties": {"Data Type": "Regional", "Country": "Philippines", "City": "Tagaytay, Cavite", "Current Cases": "3", "Total Cases": "3", "Deceased": "0", "Recovered": "0", "Total Cases/1M pop": "0", "Deaths/1M pop": "0", "Total Tests": "0", "Last Updated": "2020-05-14 02:22:22"}}, {"type": "Feature", "geometry": {"type": "Point", "coordinates": [126.216777, 6.951374]}, "properties": {"Data Type": "Regional", "Country": "Philippines", "City": "Mati, Davao Oriental", "Current Cases": "0", "Total Cases": "3", "Deceased": "0", "Recovered": "3", "Total Cases/1M pop": "0", "Deaths/1M pop": "0", "Total Tests": "0", "Last Updated": "2020-05-14 02:22:22"}}, {"type": "Feature", "geometry": {"type": "Point", "coordinates": [122.322857, 10.661521]}, "properties": {"Data Type": "Regional", "Country": "Philippines", "City": "Guimbal, Iloilo", "Current Cases": "0", "Total Cases": "3", "Deceased": "1", "Recovered": "2", "Total Cases/1M pop": "0", "Deaths/1M pop": "0", "Total Tests": "0", "Last Updated": "2020-05-14 02:22:22"}}, {"type": "Feature", "geometry": {"type": "Point", "coordinates": [122.235546, 10.641089]}, "properties": {"Data Type": "Regional", "Country": "Philippines", "City": "Miagao, Iloilo", "Current Cases": "0", "Total Cases": "3", "Deceased": "1", "Recovered": "2", "Total Cases/1M pop": "0", "Deaths/1M pop": "0", "Total Tests": "0", "Last Updated": "2020-05-14 02:22:22"}}, {"type": "Feature", "geometry": {"type": "Point", "coordinates": [122.541929, 10.774806]}, "properties": {"Data Type": "Regional", "Country": "Philippines", "City": "Pavia, Iloilo", "Current Cases": "1", "Total Cases": "3", "Deceased": "0", "Recovered": "2", "Total Cases/1M pop": "0", "Deaths/1M pop": "0", "Total Tests": "0", "Last Updated": "2020-05-14 02:22:22"}}, {"type": "Feature", "geometry": {"type": "Point", "coordinates": [121.669299, 16.809882]}, "properties": {"Data Type": "Regional", "Country": "Philippines", "City": "Alicia, Isabela", "Current Cases": "0", "Total Cases": "3", "Deceased": "0", "Recovered": "3", "Total Cases/1M pop": "0", "Deaths/1M pop": "0", "Total Tests": "0", "Last Updated": "2020-05-14 02:22:22"}}, {"type": "Feature", "geometry": {"type": "Point", "coordinates": [120.382341, 16.439349]}, "properties": {"Data Type": "Regional", "Country": "Philippines", "City": "Caba, La Union", "Current Cases": "0", "Total Cases": "3", "Deceased": "0", "Recovered": "3", "Total Cases/1M pop": "0", "Deaths/1M pop": "0", "Total Tests": "0", "Last Updated": "2020-05-14 02:22:22"}}, {"type": "Feature", "geometry": {"type": "Point", "coordinates": [121.526959, 14.329535]}, "properties": {"Data Type": "Regional", "Country": "Philippines", "City": "Kalayaan, Laguna", "Current Cases": "3", "Total Cases": "3", "Deceased": "0", "Recovered": "0", "Total Cases/1M pop": "0", "Deaths/1M pop": "0", "Total Tests": "0", "Last Updated": "2020-05-14 02:22:22"}}, {"type": "Feature", "geometry": {"type": "Point", "coordinates": [121.449302, 14.249335]}, "properties": {"Data Type": "Regional", "Country": "Philippines", "City": "Pagsanjan, Laguna", "Current Cases": "2", "Total Cases": "3", "Deceased": "0", "Recovered": "1", "Total Cases/1M pop": "0", "Deaths/1M pop": "0", "Total Tests": "0", "Last Updated": "2020-05-14 02:22:22"}}, {"type": "Feature", "geometry": {"type": "Point", "coordinates": [123.308045, 9.305478]}, "properties": {"Data Type": "Regional", "Country": "Philippines", "City": "Dumaguete, Negros Oriental", "Current Cases": "0", "Total Cases": "3", "Deceased": "1", "Recovered": "2", "Total Cases/1M pop": "0", "Deaths/1M pop": "0", "Total Tests": "0", "Last Updated": "2020-05-14 02:22:22"}}, {"type": "Feature", "geometry": {"type": "Point", "coordinates": [120.938047, 15.424713]}, "properties": {"Data Type": "Regional", "Country": "Philippines", "City": "Santa Rosa, Nueva Ecija", "Current Cases": "2", "Total Cases": "3", "Deceased": "0", "Recovered": "1", "Total Cases/1M pop": "0", "Deaths/1M pop": "0", "Total Tests": "0", "Last Updated": "2020-05-14 02:22:22"}}, {"type": "Feature", "geometry": {"type": "Point", "coordinates": [121.191065, 16.540721]}, "properties": {"Data Type": "Regional", "Country": "Philippines", "City": "Solano, Nueva Vizcaya", "Current Cases": "0", "Total Cases": "3", "Deceased": "1", "Recovered": "2", "Total Cases/1M pop": "0", "Deaths/1M pop": "0", "Total Tests": "0", "Last Updated": "2020-05-14 02:22:22"}}, {"type": "Feature", "geometry": {"type": "Point", "coordinates": [121.066305, 12.352976]}, "properties": {"Data Type": "Regional", "Country": "Philippines", "City": "San Jose, Occidental Mindoro", "Current Cases": "1", "Total Cases": "3", "Deceased": "1", "Recovered": "1", "Total Cases/1M pop": "0", "Deaths/1M pop": "0", "Total Tests": "0", "Last Updated": "2020-05-14 02:22:22"}}, {"type": "Feature", "geometry": {"type": "Point", "coordinates": [120.573311, 15.222821]}, "properties": {"Data Type": "Regional", "Country": "Philippines", "City": "Mabalacat, Pampanga", "Current Cases": "3", "Total Cases": "3", "Deceased": "0", "Recovered": "0", "Total Cases/1M pop": "0", "Deaths/1M pop": "0", "Total Tests": "0", "Last Updated": "2020-05-14 02:22:22"}}, {"type": "Feature", "geometry": {"type": "Point", "coordinates": [120.715515, 14.909613]}, "properties": {"Data Type": "Regional", "Country": "Philippines", "City": "Macabebe, Pampanga", "Current Cases": "3", "Total Cases": "3", "Deceased": "0", "Recovered": "0", "Total Cases/1M pop": "0", "Deaths/1M pop": "0", "Total Tests": "0", "Last Updated": "2020-05-14 02:22:22"}}, {"type": "Feature", "geometry": {"type": "Point", "coordinates": [120.24747, 15.991403]}, "properties": {"Data Type": "Regional", "Country": "Philippines", "City": "Lingayen, Pangasinan", "Current Cases": "2", "Total Cases": "3", "Deceased": "1", "Recovered": "0", "Total Cases/1M pop": "0", "Deaths/1M pop": "0", "Total Tests": "0", "Last Updated": "2020-05-14 02:22:22"}}, {"type": "Feature", "geometry": {"type": "Point", "coordinates": [120.456917, 15.906432]}, "properties": {"Data Type": "Regional", "Country": "Philippines", "City": "Malasiqui, Pangasinan", "Current Cases": "2", "Total Cases": "3", "Deceased": "1", "Recovered": "0", "Total Cases/1M pop": "0", "Deaths/1M pop": "0", "Total Tests": "0", "Last Updated": "2020-05-14 02:22:22"}}, {"type": "Feature", "geometry": {"type": "Point", "coordinates": [120.629974, 15.876114]}, "properties": {"Data Type": "Regional", "Country": "Philippines", "City": "Rosales, Pangasinan", "Current Cases": "2", "Total Cases": "3", "Deceased": "1", "Recovered": "0", "Total Cases/1M pop": "0", "Deaths/1M pop": "0", "Total Tests": "0", "Last Updated": "2020-05-14 02:22:22"}}, {"type": "Feature", "geometry": {"type": "Point", "coordinates": [120.560296, 15.977293]}, "properties": {"Data Type": "Regional", "Country": "Philippines", "City": "Urdaneta, Pangasinan", "Current Cases": "2", "Total Cases": "3", "Deceased": "0", "Recovered": "1", "Total Cases/1M pop": "0", "Deaths/1M pop": "0", "Total Tests": "0", "Last Updated": "2020-05-14 02:22:22"}}, {"type": "Feature", "geometry": {"type": "Point", "coordinates": [121.508966, 13.901182]}, "properties": {"Data Type": "Regional", "Country": "Philippines", "City": "Sariaya, Quezon", "Current Cases": "2", "Total Cases": "3", "Deceased": "0", "Recovered": "1", "Total Cases/1M pop": "0", "Deaths/1M pop": "0", "Total Tests": "0", "Last Updated": "2020-05-14 02:22:22"}}, {"type": "Feature", "geometry": {"type": "Point", "coordinates": [121.976363, 13.839305]}, "properties": {"Data Type": "Regional", "Country": "Philippines", "City": "Unisan, Quezon", "Current Cases": "3", "Total Cases": "3", "Deceased": "0", "Recovered": "0", "Total Cases/1M pop": "0", "Deaths/1M pop": "0", "Total Tests": "0", "Last Updated": "2020-05-14 02:22:22"}}, {"type": "Feature", "geometry": {"type": "Point", "coordinates": [121.265807, 14.521851]}, "properties": {"Data Type": "Regional", "Country": "Philippines", "City": "Baras, Rizal", "Current Cases": "2", "Total Cases": "3", "Deceased": "0", "Recovered": "1", "Total Cases/1M pop": "0", "Deaths/1M pop": "0", "Total Tests": "0", "Last Updated": "2020-05-14 02:22:22"}}, {"type": "Feature", "geometry": {"type": "Point", "coordinates": [120.205036, 14.930297]}, "properties": {"Data Type": "Regional", "Country": "Philippines", "City": "Castillejos, Zambales", "Current Cases": "1", "Total Cases": "3", "Deceased": "1", "Recovered": "1", "Total Cases/1M pop": "0", "Deaths/1M pop": "0", "Total Tests": "0", "Last Updated": "2020-05-14 02:22:22"}}, {"type": "Feature", "geometry": {"type": "Point", "coordinates": [120.070277, 15.061059]}, "properties": {"Data Type": "Regional", "Country": "Philippines", "City": "San Felipe, Zambales", "Current Cases": "3", "Total Cases": "3", "Deceased": "0", "Recovered": "0", "Total Cases/1M pop": "0", "Deaths/1M pop": "0", "Total Tests": "0", "Last Updated": "2020-05-14 02:22:22"}}, {"type": "Feature", "geometry": {"type": "Point", "coordinates": [120.827061, 17.487341]}, "properties": {"Data Type": "Regional", "Country": "Philippines", "City": "Sallapadan, Abra", "Current Cases": "0", "Total Cases": "2", "Deceased": "0", "Recovered": "2", "Total Cases/1M pop": "0", "Deaths/1M pop": "0", "Total Tests": "0", "Last Updated": "2020-05-14 02:22:22"}}, {"type": "Feature", "geometry": {"type": "Point", "coordinates": [123.537368, 13.241141]}, "properties": {"Data Type": "Regional", "Country": "Philippines", "City": "Ligao, Albay", "Current Cases": "2", "Total Cases": "2", "Deceased": "0", "Recovered": "0", "Total Cases/1M pop": "0", "Deaths/1M pop": "0", "Total Tests": "0", "Last Updated": "2020-05-14 02:22:22"}}, {"type": "Feature", "geometry": {"type": "Point", "coordinates": [120.508641, 14.830248]}, "properties": {"Data Type": "Regional", "Country": "Philippines", "City": "Hermosa, Bataan", "Current Cases": "1", "Total Cases": "2", "Deceased": "0", "Recovered": "1", "Total Cases/1M pop": "0", "Deaths/1M pop": "0", "Total Tests": "0", "Last Updated": "2020-05-14 02:22:22"}}, {"type": "Feature", "geometry": {"type": "Point", "coordinates": [121.049243, 13.901567]}, "properties": {"Data Type": "Regional", "Country": "Philippines", "City": "Cuenca, Batangas", "Current Cases": "0", "Total Cases": "2", "Deceased": "1", "Recovered": "1", "Total Cases/1M pop": "0", "Deaths/1M pop": "0", "Total Tests": "0", "Last Updated": "2020-05-14 02:22:22"}}, {"type": "Feature", "geometry": {"type": "Point", "coordinates": [120.914016, 13.88457]}, "properties": {"Data Type": "Regional", "Country": "Philippines", "City": "Lemery, Batangas", "Current Cases": "1", "Total Cases": "2", "Deceased": "0", "Recovered": "1", "Total Cases/1M pop": "0", "Deaths/1M pop": "0", "Total Tests": "0", "Last Updated": "2020-05-14 02:22:22"}}, {"type": "Feature", "geometry": {"type": "Point", "coordinates": [121.396595, 13.824898]}, "properties": {"Data Type": "Regional", "Country": "Philippines", "City": "San Juan, Batangas", "Current Cases": "2", "Total Cases": "2", "Deceased": "0", "Recovered": "0", "Total Cases/1M pop": "0", "Deaths/1M pop": "0", "Total Tests": "0", "Last Updated": "2020-05-14 02:22:22"}}, {"type": "Feature", "geometry": {"type": "Point", "coordinates": [120.847125, 14.901796]}, "properties": {"Data Type": "Regional", "Country": "Philippines", "City": "Pulilan, Bulacan", "Current Cases": "2", "Total Cases": "2", "Deceased": "0", "Recovered": "0", "Total Cases/1M pop": "0", "Deaths/1M pop": "0", "Total Tests": "0", "Last Updated": "2020-05-14 02:22:22"}}, {"type": "Feature", "geometry": {"type": "Point", "coordinates": [121.505446, 17.68078]}, "properties": {"Data Type": "Regional", "Country": "Philippines", "City": "Tuao, Cagayan", "Current Cases": "0", "Total Cases": "2", "Deceased": "0", "Recovered": "2", "Total Cases/1M pop": "0", "Deaths/1M pop": "0", "Total Tests": "0", "Last Updated": "2020-05-14 02:22:22"}}, {"type": "Feature", "geometry": {"type": "Point", "coordinates": [123.387277, 13.620115]}, "properties": {"Data Type": "Regional", "Country": "Philippines", "City": "Tigaon, Camarines Sur", "Current Cases": "2", "Total Cases": "2", "Deceased": "0", "Recovered": "0", "Total Cases/1M pop": "0", "Deaths/1M pop": "0", "Total Tests": "0", "Last Updated": "2020-05-14 02:22:22"}}, {"type": "Feature", "geometry": {"type": "Point", "coordinates": [120.925756, 14.185676]}, "properties": {"Data Type": "Regional", "Country": "Philippines", "City": "Amadeo, Cavite", "Current Cases": "2", "Total Cases": "2", "Deceased": "0", "Recovered": "0", "Total Cases/1M pop": "0", "Deaths/1M pop": "0", "Total Tests": "0", "Last Updated": "2020-05-14 02:22:22"}}, {"type": "Feature", "geometry": {"type": "Point", "coordinates": [124.00063, 11.248806]}, "properties": {"Data Type": "Regional", "Country": "Philippines", "City": "Daanbantayan, Cebu", "Current Cases": "1", "Total Cases": "2", "Deceased": "1", "Recovered": "0", "Total Cases/1M pop": "0", "Deaths/1M pop": "0", "Total Tests": "0", "Last Updated": "2020-05-14 02:22:22"}}, {"type": "Feature", "geometry": {"type": "Point", "coordinates": [123.533409, 9.761907]}, "properties": {"Data Type": "Regional", "Country": "Philippines", "City": "Dalaguete, Cebu", "Current Cases": "2", "Total Cases": "2", "Deceased": "0", "Recovered": "0", "Total Cases/1M pop": "0", "Deaths/1M pop": "0", "Total Tests": "0", "Last Updated": "2020-05-14 02:22:22"}}, {"type": "Feature", "geometry": {"type": "Point", "coordinates": [125.090489, 7.008591]}, "properties": {"Data Type": "Regional", "Country": "Philippines", "City": "Kidapawan, Cotabato", "Current Cases": "1", "Total Cases": "2", "Deceased": "0", "Recovered": "1", "Total Cases/1M pop": "0", "Deaths/1M pop": "0", "Total Tests": "0", "Last Updated": "2020-05-14 02:22:22"}}, {"type": "Feature", "geometry": {"type": "Point", "coordinates": [125.684569, 7.305191]}, "properties": {"Data Type": "Regional", "Country": "Philippines", "City": "Panabo, Davao del Norte", "Current Cases": "0", "Total Cases": "2", "Deceased": "0", "Recovered": "2", "Total Cases/1M pop": "0", "Deaths/1M pop": "0", "Total Tests": "0", "Last Updated": "2020-05-14 02:22:22"}}, {"type": "Feature", "geometry": {"type": "Point", "coordinates": [121.193267, 16.698785]}, "properties": {"Data Type": "Regional", "Country": "Philippines", "City": "Lamut, Ifugao", "Current Cases": "1", "Total Cases": "2", "Deceased": "0", "Recovered": "1", "Total Cases/1M pop": "0", "Deaths/1M pop": "0", "Total Tests": "0", "Last Updated": "2020-05-14 02:22:22"}}, {"type": "Feature", "geometry": {"type": "Point", "coordinates": [122.77768, 10.908495]}, "properties": {"Data Type": "Regional", "Country": "Philippines", "City": "Barotac Nuevo, Iloilo", "Current Cases": "0", "Total Cases": "2", "Deceased": "1", "Recovered": "1", "Total Cases/1M pop": "0", "Deaths/1M pop": "0", "Total Tests": "0", "Last Updated": "2020-05-14 02:22:22"}}, {"type": "Feature", "geometry": {"type": "Point", "coordinates": [122.376111, 10.674447]}, "properties": {"Data Type": "Regional", "Country": "Philippines", "City": "Tigbauan, Iloilo", "Current Cases": "1", "Total Cases": "2", "Deceased": "0", "Recovered": "1", "Total Cases/1M pop": "0", "Deaths/1M pop": "0", "Total Tests": "0", "Last Updated": "2020-05-14 02:22:22"}}, {"type": "Feature", "geometry": {"type": "Point", "coordinates": [121.557879, 16.665898]}, "properties": {"Data Type": "Regional", "Country": "Philippines", "City": "Santiago, Isabela", "Current Cases": "0", "Total Cases": "2", "Deceased": "0", "Recovered": "2", "Total Cases/1M pop": "0", "Deaths/1M pop": "0", "Total Tests": "0", "Last Updated": "2020-05-14 02:22:22"}}, {"type": "Feature", "geometry": {"type": "Point", "coordinates": [120.371014, 16.323517]}, "properties": {"Data Type": "Regional", "Country": "Philippines", "City": "Agoo, La Union", "Current Cases": "0", "Total Cases": "2", "Deceased": "1", "Recovered": "1", "Total Cases/1M pop": "0", "Deaths/1M pop": "0", "Total Tests": "0", "Last Updated": "2020-05-14 02:22:22"}}, {"type": "Feature", "geometry": {"type": "Point", "coordinates": [120.342005, 16.517522]}, "properties": {"Data Type": "Regional", "Country": "Philippines", "City": "Bauang, La Union", "Current Cases": "0", "Total Cases": "2", "Deceased": "1", "Recovered": "1", "Total Cases/1M pop": "0", "Deaths/1M pop": "0", "Total Tests": "0", "Last Updated": "2020-05-14 02:22:22"}}, {"type": "Feature", "geometry": {"type": "Point", "coordinates": [120.347217, 16.607504]}, "properties": {"Data Type": "Regional", "Country": "Philippines", "City": "San Fernando, La Union", "Current Cases": "0", "Total Cases": "2", "Deceased": "0", "Recovered": "2", "Total Cases/1M pop": "0", "Deaths/1M pop": "0", "Total Tests": "0", "Last Updated": "2020-05-14 02:22:22"}}, {"type": "Feature", "geometry": {"type": "Point", "coordinates": [120.402987, 16.270301]}, "properties": {"Data Type": "Regional", "Country": "Philippines", "City": "Santo Tomas, La Union", "Current Cases": "1", "Total Cases": "2", "Deceased": "0", "Recovered": "1", "Total Cases/1M pop": "0", "Deaths/1M pop": "0", "Total Tests": "0", "Last Updated": "2020-05-14 02:22:22"}}, {"type": "Feature", "geometry": {"type": "Point", "coordinates": [121.543852, 14.253588]}, "properties": {"Data Type": "Regional", "Country": "Philippines", "City": "Cavinti, Laguna", "Current Cases": "1", "Total Cases": "2", "Deceased": "0", "Recovered": "1", "Total Cases/1M pop": "0", "Deaths/1M pop": "0", "Total Tests": "0", "Last Updated": "2020-05-14 02:22:22"}}, {"type": "Feature", "geometry": {"type": "Point", "coordinates": [121.428931, 14.198924]}, "properties": {"Data Type": "Regional", "Country": "Philippines", "City": "Magdalena, Laguna", "Current Cases": "2", "Total Cases": "2", "Deceased": "0", "Recovered": "0", "Total Cases/1M pop": "0", "Deaths/1M pop": "0", "Total Tests": "0", "Last Updated": "2020-05-14 02:22:22"}}, {"type": "Feature", "geometry": {"type": "Point", "coordinates": [121.401148, 14.097673]}, "properties": {"Data Type": "Regional", "Country": "Philippines", "City": "Rizal, Laguna", "Current Cases": "2", "Total Cases": "2", "Deceased": "0", "Recovered": "0", "Total Cases/1M pop": "0", "Deaths/1M pop": "0", "Total Tests": "0", "Last Updated": "2020-05-14 02:22:22"}}, {"type": "Feature", "geometry": {"type": "Point", "coordinates": [124.23157, 7.948289]}, "properties": {"Data Type": "Regional", "Country": "Philippines", "City": "Marantao, Lanao del Sur", "Current Cases": "0", "Total Cases": "2", "Deceased": "2", "Recovered": "0", "Total Cases/1M pop": "0", "Deaths/1M pop": "0", "Total Tests": "0", "Last Updated": "2020-05-14 02:22:22"}}, {"type": "Feature", "geometry": {"type": "Point", "coordinates": [124.830204, 10.928157]}, "properties": {"Data Type": "Regional", "Country": "Philippines", "City": "Burauen, Leyte", "Current Cases": "2", "Total Cases": "2", "Deceased": "0", "Recovered": "0", "Total Cases/1M pop": "0", "Deaths/1M pop": "0", "Total Tests": "0", "Last Updated": "2020-05-14 02:22:22"}}, {"type": "Feature", "geometry": {"type": "Point", "coordinates": [123.840028, 8.334366]}, "properties": {"Data Type": "Regional", "Country": "Philippines", "City": "Jimenez, Misamis Occidental", "Current Cases": "1", "Total Cases": "2", "Deceased": "0", "Recovered": "1", "Total Cases/1M pop": "0", "Deaths/1M pop": "0", "Total Tests": "0", "Last Updated": "2020-05-14 02:22:22"}}, {"type": "Feature", "geometry": {"type": "Point", "coordinates": [123.845473, 8.24301]}, "properties": {"Data Type": "Regional", "Country": "Philippines", "City": "Tudela, Misamis Occidental", "Current Cases": "1", "Total Cases": "2", "Deceased": "1", "Recovered": "0", "Total Cases/1M pop": "0", "Deaths/1M pop": "0", "Total Tests": "0", "Last Updated": "2020-05-14 02:22:22"}}, {"type": "Feature", "geometry": {"type": "Point", "coordinates": [123.018742, 10.32305]}, "properties": {"Data Type": "Regional", "Country": "Philippines", "City": "La Castellana, Negros Occidental", "Current Cases": "1", "Total Cases": "2", "Deceased": "0", "Recovered": "1", "Total Cases/1M pop": "0", "Deaths/1M pop": "0", "Total Tests": "0", "Last Updated": "2020-05-14 02:22:22"}}, {"type": "Feature", "geometry": {"type": "Point", "coordinates": [123.200376, 9.979119]}, "properties": {"Data Type": "Regional", "Country": "Philippines", "City": "Jimalalud, Negros Oriental", "Current Cases": "0", "Total Cases": "2", "Deceased": "1", "Recovered": "1", "Total Cases/1M pop": "0", "Deaths/1M pop": "0", "Total Tests": "0", "Last Updated": "2020-05-14 02:22:22"}}, {"type": "Feature", "geometry": {"type": "Point", "coordinates": [120.856792, 15.251266]}, "properties": {"Data Type": "Regional", "Country": "Philippines", "City": "Cabiao, Nueva Ecija", "Current Cases": "2", "Total Cases": "2", "Deceased": "0", "Recovered": "0", "Total Cases/1M pop": "0", "Deaths/1M pop": "0", "Total Tests": "0", "Last Updated": "2020-05-14 02:22:22"}}, {"type": "Feature", "geometry": {"type": "Point", "coordinates": [121.049153, 15.602701]}, "properties": {"Data Type": "Regional", "Country": "Philippines", "City": "General Mamerto Natividad, Nueva Ecija", "Current Cases": "2", "Total Cases": "2", "Deceased": "0", "Recovered": "0", "Total Cases/1M pop": "0", "Deaths/1M pop": "0", "Total Tests": "0", "Last Updated": "2020-05-14 02:22:22"}}, {"type": "Feature", "geometry": {"type": "Point", "coordinates": [120.850011, 15.306706]}, "properties": {"Data Type": "Regional", "Country": "Philippines", "City": "San Antonio, Nueva Ecija", "Current Cases": "2", "Total Cases": "2", "Deceased": "0", "Recovered": "0", "Total Cases/1M pop": "0", "Deaths/1M pop": "0", "Total Tests": "0", "Last Updated": "2020-05-14 02:22:22"}}, {"type": "Feature", "geometry": {"type": "Point", "coordinates": [121.013576, 16.234083]}, "properties": {"Data Type": "Regional", "Country": "Philippines", "City": "Aritao, Nueva Vizcaya", "Current Cases": "2", "Total Cases": "2", "Deceased": "0", "Recovered": "0", "Total Cases/1M pop": "0", "Deaths/1M pop": "0", "Total Tests": "0", "Last Updated": "2020-05-14 02:22:22"}}, {"type": "Feature", "geometry": {"type": "Point", "coordinates": [121.144145, 12.306904]}, "properties": {"Data Type": "Regional", "Country": "Philippines", "City": "Magsaysay, Occidental Mindoro", "Current Cases": "2", "Total Cases": "2", "Deceased": "0", "Recovered": "0", "Total Cases/1M pop": "0", "Deaths/1M pop": "0", "Total Tests": "0", "Last Updated": "2020-05-14 02:22:22"}}, {"type": "Feature", "geometry": {"type": "Point", "coordinates": [121.438981, 12.520499]}, "properties": {"Data Type": "Regional", "Country": "Philippines", "City": "Mansalay, Oriental Mindoro", "Current Cases": "0", "Total Cases": "2", "Deceased": "0", "Recovered": "2", "Total Cases/1M pop": "0", "Deaths/1M pop": "0", "Total Tests": "0", "Last Updated": "2020-05-14 02:22:22"}}, {"type": "Feature", "geometry": {"type": "Point", "coordinates": [120.927905, 13.421072]}, "properties": {"Data Type": "Regional", "Country": "Philippines", "City": "Puerto Galera, Oriental Mindoro", "Current Cases": "1", "Total Cases": "2", "Deceased": "0", "Recovered": "1", "Total Cases/1M pop": "0", "Deaths/1M pop": "0", "Total Tests": "0", "Last Updated": "2020-05-14 02:22:22"}}, {"type": "Feature", "geometry": {"type": "Point", "coordinates": [118.735041, 9.737602]}, "properties": {"Data Type": "Regional", "Country": "Philippines", "City": "Puerto Princesa, Palawan", "Current Cases": "0", "Total Cases": "2", "Deceased": "1", "Recovered": "1", "Total Cases/1M pop": "0", "Deaths/1M pop": "0", "Total Tests": "0", "Last Updated": "2020-05-14 02:22:22"}}, {"type": "Feature", "geometry": {"type": "Point", "coordinates": [120.651393, 14.996561]}, "properties": {"Data Type": "Regional", "Country": "Philippines", "City": "Bacolor, Pampanga", "Current Cases": "1", "Total Cases": "2", "Deceased": "1", "Recovered": "0", "Total Cases/1M pop": "0", "Deaths/1M pop": "0", "Total Tests": "0", "Last Updated": "2020-05-14 02:22:22"}}, {"type": "Feature", "geometry": {"type": "Point", "coordinates": [120.861133, 15.108774]}, "properties": {"Data Type": "Regional", "Country": "Philippines", "City": "Candaba, Pampanga", "Current Cases": "0", "Total Cases": "2", "Deceased": "1", "Recovered": "1", "Total Cases/1M pop": "0", "Deaths/1M pop": "0", "Total Tests": "0", "Last Updated": "2020-05-14 02:22:22"}}, {"type": "Feature", "geometry": {"type": "Point", "coordinates": [120.528702, 14.975983]}, "properties": {"Data Type": "Regional", "Country": "Philippines", "City": "Floridablanca, Pampanga", "Current Cases": "0", "Total Cases": "2", "Deceased": "1", "Recovered": "1", "Total Cases/1M pop": "0", "Deaths/1M pop": "0", "Total Tests": "0", "Last Updated": "2020-05-14 02:22:22"}}, {"type": "Feature", "geometry": {"type": "Point", "coordinates": [120.720544, 15.064351]}, "properties": {"Data Type": "Regional", "Country": "Philippines", "City": "Mexico, Pampanga", "Current Cases": "2", "Total Cases": "2", "Deceased": "0", "Recovered": "0", "Total Cases/1M pop": "0", "Deaths/1M pop": "0", "Total Tests": "0", "Last Updated": "2020-05-14 02:22:22"}}, {"type": "Feature", "geometry": {"type": "Point", "coordinates": [120.77959, 14.997586]}, "properties": {"Data Type": "Regional", "Country": "Philippines", "City": "San Simon, Pampanga", "Current Cases": "2", "Total Cases": "2", "Deceased": "0", "Recovered": "0", "Total Cases/1M pop": "0", "Deaths/1M pop": "0", "Total Tests": "0", "Last Updated": "2020-05-14 02:22:22"}}, {"type": "Feature", "geometry": {"type": "Point", "coordinates": [120.765989, 15.094694]}, "properties": {"Data Type": "Regional", "Country": "Philippines", "City": "Santa Ana, Pampanga", "Current Cases": "2", "Total Cases": "2", "Deceased": "0", "Recovered": "0", "Total Cases/1M pop": "0", "Deaths/1M pop": "0", "Total Tests": "0", "Last Updated": "2020-05-14 02:22:22"}}, {"type": "Feature", "geometry": {"type": "Point", "coordinates": [120.704572, 14.993966]}, "properties": {"Data Type": "Regional", "Country": "Philippines", "City": "Santo Tomas, Pampanga", "Current Cases": "1", "Total Cases": "2", "Deceased": "0", "Recovered": "1", "Total Cases/1M pop": "0", "Deaths/1M pop": "0", "Total Tests": "0", "Last Updated": "2020-05-14 02:22:22"}}, {"type": "Feature", "geometry": {"type": "Point", "coordinates": [120.622979, 14.935766]}, "properties": {"Data Type": "Regional", "Country": "Philippines", "City": "Sasmuan, Pampanga", "Current Cases": "2", "Total Cases": "2", "Deceased": "0", "Recovered": "0", "Total Cases/1M pop": "0", "Deaths/1M pop": "0", "Total Tests": "0", "Last Updated": "2020-05-14 02:22:22"}}, {"type": "Feature", "geometry": {"type": "Point", "coordinates": [119.982646, 16.149593]}, "properties": {"Data Type": "Regional", "Country": "Philippines", "City": "Alaminos, Pangasinan", "Current Cases": "0", "Total Cases": "2", "Deceased": "1", "Recovered": "1", "Total Cases/1M pop": "0", "Deaths/1M pop": "0", "Total Tests": "0", "Last Updated": "2020-05-14 02:22:22"}}, {"type": "Feature", "geometry": {"type": "Point", "coordinates": [120.330134, 15.900564]}, "properties": {"Data Type": "Regional", "Country": "Philippines", "City": "San Carlos, Pangasinan", "Current Cases": "2", "Total Cases": "2", "Deceased": "0", "Recovered": "0", "Total Cases/1M pop": "0", "Deaths/1M pop": "0", "Total Tests": "0", "Last Updated": "2020-05-14 02:22:22"}}, {"type": "Feature", "geometry": {"type": "Point", "coordinates": [122.261111, 13.882511]}, "properties": {"Data Type": "Regional", "Country": "Philippines", "City": "Lopez, Quezon", "Current Cases": "2", "Total Cases": "2", "Deceased": "0", "Recovered": "0", "Total Cases/1M pop": "0", "Deaths/1M pop": "0", "Total Tests": "0", "Last Updated": "2020-05-14 02:22:22"}}, {"type": "Feature", "geometry": {"type": "Point", "coordinates": [121.55486, 14.114401]}, "properties": {"Data Type": "Regional", "Country": "Philippines", "City": "Lucban, Quezon", "Current Cases": "2", "Total Cases": "2", "Deceased": "0", "Recovered": "0", "Total Cases/1M pop": "0", "Deaths/1M pop": "0", "Total Tests": "0", "Last Updated": "2020-05-14 02:22:22"}}, {"type": "Feature", "geometry": {"type": "Point", "coordinates": [121.324743, 14.354674]}, "properties": {"Data Type": "Regional", "Country": "Philippines", "City": "Jalajala, Rizal", "Current Cases": "0", "Total Cases": "2", "Deceased": "1", "Recovered": "1", "Total Cases/1M pop": "0", "Deaths/1M pop": "0", "Total Tests": "0", "Last Updated": "2020-05-14 02:22:22"}}, {"type": "Feature", "geometry": {"type": "Point", "coordinates": [120.567269, 15.273324]}, "properties": {"Data Type": "Regional", "Country": "Philippines", "City": "Bamban, Tarlac", "Current Cases": "2", "Total Cases": "2", "Deceased": "0", "Recovered": "0", "Total Cases/1M pop": "0", "Deaths/1M pop": "0", "Total Tests": "0", "Last Updated": "2020-05-14 02:22:22"}}, {"type": "Feature", "geometry": {"type": "Point", "coordinates": [120.589909, 15.336112]}, "properties": {"Data Type": "Regional", "Country": "Philippines", "City": "Capas, Tarlac", "Current Cases": "1", "Total Cases": "2", "Deceased": "0", "Recovered": "1", "Total Cases/1M pop": "0", "Deaths/1M pop": "0", "Total Tests": "0", "Last Updated": "2020-05-14 02:22:22"}}, {"type": "Feature", "geometry": {"type": "Point", "coordinates": [120.655386, 15.324853]}, "properties": {"Data Type": "Regional", "Country": "Philippines", "City": "Concepcion, Tarlac", "Current Cases": "1", "Total Cases": "2", "Deceased": "0", "Recovered": "1", "Total Cases/1M pop": "0", "Deaths/1M pop": "0", "Total Tests": "0", "Last Updated": "2020-05-14 02:22:22"}}, {"type": "Feature", "geometry": {"type": "Point", "coordinates": [120.598573, 15.606931]}, "properties": {"Data Type": "Regional", "Country": "Philippines", "City": "Gerona, Tarlac", "Current Cases": "1", "Total Cases": "2", "Deceased": "0", "Recovered": "1", "Total Cases/1M pop": "0", "Deaths/1M pop": "0", "Total Tests": "0", "Last Updated": "2020-05-14 02:22:22"}}, {"type": "Feature", "geometry": {"type": "Point", "coordinates": [119.929145, 15.627117]}, "properties": {"Data Type": "Regional", "Country": "Philippines", "City": "Candelaria, Zambales", "Current Cases": "2", "Total Cases": "2", "Deceased": "0", "Recovered": "0", "Total Cases/1M pop": "0", "Deaths/1M pop": "0", "Total Tests": "0", "Last Updated": "2020-05-14 02:22:22"}}, {"type": "Feature", "geometry": {"type": "Point", "coordinates": [120.156287, 14.97381]}, "properties": {"Data Type": "Regional", "Country": "Philippines", "City": "San Marcelino, Zambales", "Current Cases": "2", "Total Cases": "2", "Deceased": "0", "Recovered": "0", "Total Cases/1M pop": "0", "Deaths/1M pop": "0", "Total Tests": "0", "Last Updated": "2020-05-14 02:22:22"}}, {"type": "Feature", "geometry": {"type": "Point", "coordinates": [120.716062, 17.409615]}, "properties": {"Data Type": "Regional", "Country": "Philippines", "City": "Manabo, Abra", "Current Cases": "0", "Total Cases": "1", "Deceased": "0", "Recovered": "1", "Total Cases/1M pop": "0", "Deaths/1M pop": "0", "Total Tests": "0", "Last Updated": "2020-05-14 02:22:22"}}, {"type": "Feature", "geometry": {"type": "Point", "coordinates": [122.488137, 11.537389]}, "properties": {"Data Type": "Regional", "Country": "Philippines", "City": "Altavas, Aklan", "Current Cases": "0", "Total Cases": "1", "Deceased": "0", "Recovered": "1", "Total Cases/1M pop": "0", "Deaths/1M pop": "0", "Total Tests": "0", "Last Updated": "2020-05-14 02:22:22"}}, {"type": "Feature", "geometry": {"type": "Point", "coordinates": [122.333202, 11.603745]}, "properties": {"Data Type": "Regional", "Country": "Philippines", "City": "Banga, Aklan", "Current Cases": "1", "Total Cases": "1", "Deceased": "0", "Recovered": "0", "Total Cases/1M pop": "0", "Deaths/1M pop": "0", "Total Tests": "0", "Last Updated": "2020-05-14 02:22:22"}}, {"type": "Feature", "geometry": {"type": "Point", "coordinates": [122.187209, 11.673696]}, "properties": {"Data Type": "Regional", "Country": "Philippines", "City": "Ibajay, Aklan", "Current Cases": "1", "Total Cases": "1", "Deceased": "0", "Recovered": "0", "Total Cases/1M pop": "0", "Deaths/1M pop": "0", "Total Tests": "0", "Last Updated": "2020-05-14 02:22:22"}}, {"type": "Feature", "geometry": {"type": "Point", "coordinates": [122.318394, 11.415889]}, "properties": {"Data Type": "Regional", "Country": "Philippines", "City": "Libacao, Aklan", "Current Cases": "0", "Total Cases": "1", "Deceased": "0", "Recovered": "1", "Total Cases/1M pop": "0", "Deaths/1M pop": "0", "Total Tests": "0", "Last Updated": "2020-05-14 02:22:22"}}, {"type": "Feature", "geometry": {"type": "Point", "coordinates": [121.913178, 11.919389]}, "properties": {"Data Type": "Regional", "Country": "Philippines", "City": "Malay, Aklan", "Current Cases": "0", "Total Cases": "1", "Deceased": "0", "Recovered": "1", "Total Cases/1M pop": "0", "Deaths/1M pop": "0", "Total Tests": "0", "Last Updated": "2020-05-14 02:22:22"}}, {"type": "Feature", "geometry": {"type": "Point", "coordinates": [123.791249, 13.292607]}, "properties": {"Data Type": "Regional", "Country": "Philippines", "City": "Bacacay, Albay", "Current Cases": "0", "Total Cases": "1", "Deceased": "0", "Recovered": "1", "Total Cases/1M pop": "0", "Deaths/1M pop": "0", "Total Tests": "0", "Last Updated": "2020-05-14 02:22:22"}}, {"type": "Feature", "geometry": {"type": "Point", "coordinates": [123.655267, 13.181574]}, "properties": {"Data Type": "Regional", "Country": "Philippines", "City": "Camalig, Albay", "Current Cases": "1", "Total Cases": "1", "Deceased": "0", "Recovered": "0", "Total Cases/1M pop": "0", "Deaths/1M pop": "0", "Total Tests": "0", "Last Updated": "2020-05-14 02:22:22"}}, {"type": "Feature", "geometry": {"type": "Point", "coordinates": [123.704978, 13.397457]}, "properties": {"Data Type": "Regional", "Country": "Philippines", "City": "Malinao, Albay", "Current Cases": "1", "Total Cases": "1", "Deceased": "0", "Recovered": "0", "Total Cases/1M pop": "0", "Deaths/1M pop": "0", "Total Tests": "0", "Last Updated": "2020-05-14 02:22:22"}}, {"type": "Feature", "geometry": {"type": "Point", "coordinates": [121.939681, 10.659332]}, "properties": {"Data Type": "Regional", "Country": "Philippines", "City": "Hamtic, Antique", "Current Cases": "1", "Total Cases": "1", "Deceased": "0", "Recovered": "0", "Total Cases/1M pop": "0", "Deaths/1M pop": "0", "Total Tests": "0", "Last Updated": "2020-05-14 02:22:22"}}, {"type": "Feature", "geometry": {"type": "Point", "coordinates": [122.021722, 11.148443]}, "properties": {"Data Type": "Regional", "Country": "Philippines", "City": "Laua-an, Antique", "Current Cases": "1", "Total Cases": "1", "Deceased": "0", "Recovered": "0", "Total Cases/1M pop": "0", "Deaths/1M pop": "0", "Total Tests": "0", "Last Updated": "2020-05-14 02:22:22"}}, {"type": "Feature", "geometry": {"type": "Point", "coordinates": [121.945127, 10.516262]}, "properties": {"Data Type": "Regional", "Country": "Philippines", "City": "Tobias Fornier (Dao), Antique", "Current Cases": "1", "Total Cases": "1", "Deceased": "0", "Recovered": "0", "Total Cases/1M pop": "0", "Deaths/1M pop": "0", "Total Tests": "0", "Last Updated": "2020-05-14 02:22:22"}}, {"type": "Feature", "geometry": {"type": "Point", "coordinates": [120.392291, 14.596743]}, "properties": {"Data Type": "Regional", "Country": "Philippines", "City": "Bagac, Bataan", "Current Cases": "1", "Total Cases": "1", "Deceased": "0", "Recovered": "0", "Total Cases/1M pop": "0", "Deaths/1M pop": "0", "Total Tests": "0", "Last Updated": "2020-05-14 02:22:22"}}, {"type": "Feature", "geometry": {"type": "Point", "coordinates": [120.461031, 14.8674]}, "properties": {"Data Type": "Regional", "Country": "Philippines", "City": "Dinalupihan, Bataan", "Current Cases": "1", "Total Cases": "1", "Deceased": "0", "Recovered": "0", "Total Cases/1M pop": "0", "Deaths/1M pop": "0", "Total Tests": "0", "Last Updated": "2020-05-14 02:22:22"}}, {"type": "Feature", "geometry": {"type": "Point", "coordinates": [120.813103, 13.93045]}, "properties": {"Data Type": "Regional", "Country": "Philippines", "City": "Calaca, Batangas", "Current Cases": "0", "Total Cases": "1", "Deceased": "0", "Recovered": "1", "Total Cases/1M pop": "0", "Deaths/1M pop": "0", "Total Tests": "0", "Last Updated": "2020-05-14 02:22:22"}}, {"type": "Feature", "geometry": {"type": "Point", "coordinates": [121.13582, 13.819609]}, "properties": {"Data Type": "Regional", "Country": "Philippines", "City": "Ibaan, Batangas", "Current Cases": "1", "Total Cases": "1", "Deceased": "0", "Recovered": "0", "Total Cases/1M pop": "0", "Deaths/1M pop": "0", "Total Tests": "0", "Last Updated": "2020-05-14 02:22:22"}}, {"type": "Feature", "geometry": {"type": "Point", "coordinates": [120.653419, 14.036066]}, "properties": {"Data Type": "Regional", "Country": "Philippines", "City": "Lian, Batangas", "Current Cases": "1", "Total Cases": "1", "Deceased": "0", "Recovered": "0", "Total Cases/1M pop": "0", "Deaths/1M pop": "0", "Total Tests": "0", "Last Updated": "2020-05-14 02:22:22"}}, {"type": "Feature", "geometry": {"type": "Point", "coordinates": [121.210279, 13.647655]}, "properties": {"Data Type": "Regional", "Country": "Philippines", "City": "Lobo, Batangas", "Current Cases": "0", "Total Cases": "1", "Deceased": "0", "Recovered": "1", "Total Cases/1M pop": "0", "Deaths/1M pop": "0", "Total Tests": "0", "Last Updated": "2020-05-14 02:22:22"}}, {"type": "Feature", "geometry": {"type": "Point", "coordinates": [120.941278, 13.74769]}, "properties": {"Data Type": "Regional", "Country": "Philippines", "City": "Mabini, Batangas", "Current Cases": "1", "Total Cases": "1", "Deceased": "0", "Recovered": "0", "Total Cases/1M pop": "0", "Deaths/1M pop": "0", "Total Tests": "0", "Last Updated": "2020-05-14 02:22:22"}}, {"type": "Feature", "geometry": {"type": "Point", "coordinates": [121.104012, 13.978897]}, "properties": {"Data Type": "Regional", "Country": "Philippines", "City": "Mataasnakahoy, Batangas", "Current Cases": "1", "Total Cases": "1", "Deceased": "0", "Recovered": "0", "Total Cases/1M pop": "0", "Deaths/1M pop": "0", "Total Tests": "0", "Last Updated": "2020-05-14 02:22:22"}}, {"type": "Feature", "geometry": {"type": "Point", "coordinates": [121.231768, 13.877435]}, "properties": {"Data Type": "Regional", "Country": "Philippines", "City": "Padre Garcia, Batangas", "Current Cases": "1", "Total Cases": "1", "Deceased": "0", "Recovered": "0", "Total Cases/1M pop": "0", "Deaths/1M pop": "0", "Total Tests": "0", "Last Updated": "2020-05-14 02:22:22"}}, {"type": "Feature", "geometry": {"type": "Point", "coordinates": [121.203579, 13.844238]}, "properties": {"Data Type": "Regional", "Country": "Philippines", "City": "Rosario, Batangas", "Current Cases": "0", "Total Cases": "1", "Deceased": "0", "Recovered": "1", "Total Cases/1M pop": "0", "Deaths/1M pop": "0", "Total Tests": "0", "Last Updated": "2020-05-14 02:22:22"}}, {"type": "Feature", "geometry": {"type": "Point", "coordinates": [121.101938, 13.880215]}, "properties": {"Data Type": "Regional", "Country": "Philippines", "City": "San Jose, Batangas", "Current Cases": "1", "Total Cases": "1", "Deceased": "0", "Recovered": "0", "Total Cases/1M pop": "0", "Deaths/1M pop": "0", "Total Tests": "0", "Last Updated": "2020-05-14 02:22:22"}}, {"type": "Feature", "geometry": {"type": "Point", "coordinates": [121.030223, 13.784491]}, "properties": {"Data Type": "Regional", "Country": "Philippines", "City": "San Pascual, Batangas", "Current Cases": "0", "Total Cases": "1", "Deceased": "0", "Recovered": "1", "Total Cases/1M pop": "0", "Deaths/1M pop": "0", "Total Tests": "0", "Last Updated": "2020-05-14 02:22:22"}}, {"type": "Feature", "geometry": {"type": "Point", "coordinates": [120.923272, 13.880182]}, "properties": {"Data Type": "Regional", "Country": "Philippines", "City": "Taal, Batangas", "Current Cases": "0", "Total Cases": "1", "Deceased": "1", "Recovered": "0", "Total Cases/1M pop": "0", "Deaths/1M pop": "0", "Total Tests": "0", "Last Updated": "2020-05-14 02:22:22"}}, {"type": "Feature", "geometry": {"type": "Point", "coordinates": [120.803123, 16.437408]}, "properties": {"Data Type": "Regional", "Country": "Philippines", "City": "Bokod, Benguet", "Current Cases": "0", "Total Cases": "1", "Deceased": "0", "Recovered": "1", "Total Cases/1M pop": "0", "Deaths/1M pop": "0", "Total Tests": "0", "Last Updated": "2020-05-14 02:22:22"}}, {"type": "Feature", "geometry": {"type": "Point", "coordinates": [123.704123, 9.548295]}, "properties": {"Data Type": "Regional", "Country": "Philippines", "City": "Panglao, Bohol", "Current Cases": "0", "Total Cases": "1", "Deceased": "0", "Recovered": "1", "Total Cases/1M pop": "0", "Deaths/1M pop": "0", "Total Tests": "0", "Last Updated": "2020-05-14 02:22:22"}}, {"type": "Feature", "geometry": {"type": "Point", "coordinates": [125.089803, 7.902884]}, "properties": {"Data Type": "Regional", "Country": "Philippines", "City": "Valencia, Bukidnon", "Current Cases": "0", "Total Cases": "1", "Deceased": "0", "Recovered": "1", "Total Cases/1M pop": "0", "Deaths/1M pop": "0", "Total Tests": "0", "Last Updated": "2020-05-14 02:22:22"}}, {"type": "Feature", "geometry": {"type": "Point", "coordinates": [121.031917, 14.932794]}, "properties": {"Data Type": "Regional", "Country": "Philippines", "City": "Angat, Bulacan", "Current Cases": "1", "Total Cases": "1", "Deceased": "0", "Recovered": "0", "Total Cases/1M pop": "0", "Deaths/1M pop": "0", "Total Tests": "0", "Last Updated": "2020-05-14 02:22:22"}}, {"type": "Feature", "geometry": {"type": "Point", "coordinates": [120.874476, 14.826175]}, "properties": {"Data Type": "Regional", "Country": "Philippines", "City": "Balagtas (Bigaa), Bulacan", "Current Cases": "0", "Total Cases": "1", "Deceased": "0", "Recovered": "1", "Total Cases/1M pop": "0", "Deaths/1M pop": "0", "Total Tests": "0", "Last Updated": "2020-05-14 02:22:22"}}, {"type": "Feature", "geometry": {"type": "Point", "coordinates": [120.918156, 14.954911]}, "properties": {"Data Type": "Regional", "Country": "Philippines", "City": "Bustos, Bulacan", "Current Cases": "1", "Total Cases": "1", "Deceased": "0", "Recovered": "0", "Total Cases/1M pop": "0", "Deaths/1M pop": "0", "Total Tests": "0", "Last Updated": "2020-05-14 02:22:22"}}, {"type": "Feature", "geometry": {"type": "Point", "coordinates": [120.917244, 14.720304]}, "properties": {"Data Type": "Regional", "Country": "Philippines", "City": "Obando, Bulacan", "Current Cases": "0", "Total Cases": "1", "Deceased": "1", "Recovered": "0", "Total Cases/1M pop": "0", "Deaths/1M pop": "0", "Total Tests": "0", "Last Updated": "2020-05-14 02:22:22"}}, {"type": "Feature", "geometry": {"type": "Point", "coordinates": [120.786832, 14.836224]}, "properties": {"Data Type": "Regional", "Country": "Philippines", "City": "Paombong, Bulacan", "Current Cases": "0", "Total Cases": "1", "Deceased": "0", "Recovered": "1", "Total Cases/1M pop": "0", "Deaths/1M pop": "0", "Total Tests": "0", "Last Updated": "2020-05-14 02:22:22"}}, {"type": "Feature", "geometry": {"type": "Point", "coordinates": [120.939807, 15.078122]}, "properties": {"Data Type": "Regional", "Country": "Philippines", "City": "San Ildefonso, Bulacan", "Current Cases": "0", "Total Cases": "1", "Deceased": "1", "Recovered": "0", "Total Cases/1M pop": "0", "Deaths/1M pop": "0", "Total Tests": "0", "Last Updated": "2020-05-14 02:22:22"}}, {"type": "Feature", "geometry": {"type": "Point", "coordinates": [121.959667, 17.93255]}, "properties": {"Data Type": "Regional", "Country": "Philippines", "City": "Baggao, Cagayan", "Current Cases": "1", "Total Cases": "1", "Deceased": "0", "Recovered": "0", "Total Cases/1M pop": "0", "Deaths/1M pop": "0", "Total Tests": "0", "Last Updated": "2020-05-14 02:22:22"}}, {"type": "Feature", "geometry": {"type": "Point", "coordinates": [121.779932, 18.039085]}, "properties": {"Data Type": "Regional", "Country": "Philippines", "City": "Gattaran, Cagayan", "Current Cases": "0", "Total Cases": "1", "Deceased": "0", "Recovered": "1", "Total Cases/1M pop": "0", "Deaths/1M pop": "0", "Total Tests": "0", "Last Updated": "2020-05-14 02:22:22"}}, {"type": "Feature", "geometry": {"type": "Point", "coordinates": [121.508632, 17.775042]}, "properties": {"Data Type": "Regional", "Country": "Philippines", "City": "Piat, Cagayan", "Current Cases": "0", "Total Cases": "1", "Deceased": "0", "Recovered": "1", "Total Cases/1M pop": "0", "Deaths/1M pop": "0", "Total Tests": "0", "Last Updated": "2020-05-14 02:22:22"}}, {"type": "Feature", "geometry": {"type": "Point", "coordinates": [122.828524, 14.154352]}, "properties": {"Data Type": "Regional", "Country": "Philippines", "City": "Labo, Camarines Norte", "Current Cases": "1", "Total Cases": "1", "Deceased": "0", "Recovered": "0", "Total Cases/1M pop": "0", "Deaths/1M pop": "0", "Total Tests": "0", "Last Updated": "2020-05-14 02:22:22"}}, {"type": "Feature", "geometry": {"type": "Point", "coordinates": [123.215756, 13.708545]}, "properties": {"Data Type": "Regional", "Country": "Philippines", "City": "Calabanga, Camarines Sur", "Current Cases": "1", "Total Cases": "1", "Deceased": "0", "Recovered": "0", "Total Cases/1M pop": "0", "Deaths/1M pop": "0", "Total Tests": "0", "Last Updated": "2020-05-14 02:22:22"}}, {"type": "Feature", "geometry": {"type": "Point", "coordinates": [123.061212, 13.696036]}, "properties": {"Data Type": "Regional", "Country": "Philippines", "City": "Libmanan, Camarines Sur", "Current Cases": "0", "Total Cases": "1", "Deceased": "0", "Recovered": "1", "Total Cases/1M pop": "0", "Deaths/1M pop": "0", "Total Tests": "0", "Last Updated": "2020-05-14 02:22:22"}}, {"type": "Feature", "geometry": {"type": "Point", "coordinates": [123.176719, 13.594584]}, "properties": {"Data Type": "Regional", "Country": "Philippines", "City": "Milaor, Camarines Sur", "Current Cases": "1", "Total Cases": "1", "Deceased": "0", "Recovered": "0", "Total Cases/1M pop": "0", "Deaths/1M pop": "0", "Total Tests": "0", "Last Updated": "2020-05-14 02:22:22"}}, {"type": "Feature", "geometry": {"type": "Point", "coordinates": [123.04115, 13.510207]}, "properties": {"Data Type": "Regional", "Country": "Philippines", "City": "Pasacao, Camarines Sur", "Current Cases": "1", "Total Cases": "1", "Deceased": "0", "Recovered": "0", "Total Cases/1M pop": "0", "Deaths/1M pop": "0", "Total Tests": "0", "Last Updated": "2020-05-14 02:22:22"}}, {"type": "Feature", "geometry": {"type": "Point", "coordinates": [122.978579, 13.766636]}, "properties": {"Data Type": "Regional", "Country": "Philippines", "City": "Sipocot, Camarines Sur", "Current Cases": "1", "Total Cases": "1", "Deceased": "0", "Recovered": "0", "Total Cases/1M pop": "0", "Deaths/1M pop": "0", "Total Tests": "0", "Last Updated": "2020-05-14 02:22:22"}}, {"type": "Feature", "geometry": {"type": "Point", "coordinates": [124.887546, 9.210983]},