{"type": "FeatureCollection", "features": [{"type": "Feature", "geometry": {"type": "Point", "coordinates": [121.032971, 14.573611]}, "properties": {"Data Type": "Regional", "Country": "Philippines", "City": "Metro Manila", "Current Cases": "4835", "Total Cases": "5968", "Deceased": "409", "Recovered": "724", "Total Cases/1M pop": "0", "Deaths/1M pop": "0", "Total Tests": "0", "Last Updated": "2020-05-04 16:50:27"}}, {"type": "Feature", "geometry": {"type": "Point", "coordinates": [121.06316, 17.366747]}, "properties": {"Data Type": "Regional", "Country": "Philippines", "City": "Cordillera", "Current Cases": "26", "Total Cases": "44", "Deceased": "1", "Recovered": "17", "Total Cases/1M pop": "0", "Deaths/1M pop": "0", "Total Tests": "0", "Last Updated": "2020-05-04 16:50:27"}}, {"type": "Feature", "geometry": {"type": "Point", "coordinates": [120.471345, 17.201296]}, "properties": {"Data Type": "Regional", "Country": "Philippines", "City": "Ilocos Region", "Current Cases": "33", "Total Cases": "61", "Deceased": "11", "Recovered": "17", "Total Cases/1M pop": "0", "Deaths/1M pop": "0", "Total Tests": "0", "Last Updated": "2020-05-04 16:50:27"}}, {"type": "Feature", "geometry": {"type": "Point", "coordinates": [121.875477, 17.680698]}, "properties": {"Data Type": "Regional", "Country": "Philippines", "City": "Cagayan Valley", "Current Cases": "11", "Total Cases": "34", "Deceased": "1", "Recovered": "22", "Total Cases/1M pop": "0", "Deaths/1M pop": "0", "Total Tests": "0", "Last Updated": "2020-05-04 16:50:27"}}, {"type": "Feature", "geometry": {"type": "Point", "coordinates": [120.6857, 15.390912]}, "properties": {"Data Type": "Regional", "Country": "Philippines", "City": "Central Luzon", "Current Cases": "323", "Total Cases": "375", "Deceased": "27", "Recovered": "25", "Total Cases/1M pop": "0", "Deaths/1M pop": "0", "Total Tests": "0", "Last Updated": "2020-05-04 16:50:27"}}, {"type": "Feature", "geometry": {"type": "Point", "coordinates": [121.35366, 14.163811]}, "properties": {"Data Type": "Regional", "Country": "Philippines", "City": "Calabarzon", "Current Cases": "959", "Total Cases": "1150", "Deceased": "76", "Recovered": "115", "Total Cases/1M pop": "0", "Deaths/1M pop": "0", "Total Tests": "0", "Last Updated": "2020-05-04 16:50:27"}}, {"type": "Feature", "geometry": {"type": "Point", "coordinates": [121.406418, 13.01522]}, "properties": {"Data Type": "Regional", "Country": "Philippines", "City": "Mimaropa", "Current Cases": "13", "Total Cases": "22", "Deceased": "2", "Recovered": "7", "Total Cases/1M pop": "0", "Deaths/1M pop": "0", "Total Tests": "0", "Last Updated": "2020-05-04 16:50:27"}}, {"type": "Feature", "geometry": {"type": "Point", "coordinates": [123.523133, 13.100588]}, "properties": {"Data Type": "Regional", "Country": "Philippines", "City": "Bicol Region", "Current Cases": "40", "Total Cases": "51", "Deceased": "4", "Recovered": "7", "Total Cases/1M pop": "0", "Deaths/1M pop": "0", "Total Tests": "0", "Last Updated": "2020-05-04 16:50:27"}}, {"type": "Feature", "geometry": {"type": "Point", "coordinates": [122.722991, 10.672959]}, "properties": {"Data Type": "Regional", "Country": "Philippines", "City": "Western Visayas", "Current Cases": "40", "Total Cases": "71", "Deceased": "9", "Recovered": "22", "Total Cases/1M pop": "0", "Deaths/1M pop": "0", "Total Tests": "0", "Last Updated": "2020-05-04 16:50:27"}}, {"type": "Feature", "geometry": {"type": "Point", "coordinates": [123.869396, 10.264054]}, "properties": {"Data Type": "Regional", "Country": "Philippines", "City": "Central Visayas", "Current Cases": "746", "Total Cases": "775", "Deceased": "9", "Recovered": "20", "Total Cases/1M pop": "0", "Deaths/1M pop": "0", "Total Tests": "0", "Last Updated": "2020-05-04 16:50:27"}}, {"type": "Feature", "geometry": {"type": "Point", "coordinates": [124.997556, 11.327827]}, "properties": {"Data Type": "Regional", "Country": "Philippines", "City": "Eastern Visayas", "Current Cases": "11", "Total Cases": "14", "Deceased": "1", "Recovered": "2", "Total Cases/1M pop": "0", "Deaths/1M pop": "0", "Total Tests": "0", "Last Updated": "2020-05-04 16:50:27"}}, {"type": "Feature", "geometry": {"type": "Point", "coordinates": [122.756005, 7.773018]}, "properties": {"Data Type": "Regional", "Country": "Philippines", "City": "Zamboanga Peninsula", "Current Cases": "8", "Total Cases": "13", "Deceased": "2", "Recovered": "3", "Total Cases/1M pop": "0", "Deaths/1M pop": "0", "Total Tests": "0", "Last Updated": "2020-05-04 16:50:27"}}, {"type": "Feature", "geometry": {"type": "Point", "coordinates": [124.687196, 8.404885]}, "properties": {"Data Type": "Regional", "Country": "Philippines", "City": "Northern Mindanao", "Current Cases": "3", "Total Cases": "13", "Deceased": "5", "Recovered": "5", "Total Cases/1M pop": "0", "Deaths/1M pop": "0", "Total Tests": "0", "Last Updated": "2020-05-04 16:50:27"}}, {"type": "Feature", "geometry": {"type": "Point", "coordinates": [125.429865, 6.610975]}, "properties": {"Data Type": "Regional", "Country": "Philippines", "City": "Davao Region", "Current Cases": "34", "Total Cases": "131", "Deceased": "18", "Recovered": "79", "Total Cases/1M pop": "0", "Deaths/1M pop": "0", "Total Tests": "0", "Last Updated": "2020-05-04 16:50:27"}}, {"type": "Feature", "geometry": {"type": "Point", "coordinates": [124.538137, 6.594076]}, "properties": {"Data Type": "Regional", "Country": "Philippines", "City": "Soccsksargen", "Current Cases": "4", "Total Cases": "17", "Deceased": "1", "Recovered": "12", "Total Cases/1M pop": "0", "Deaths/1M pop": "0", "Total Tests": "0", "Last Updated": "2020-05-04 16:50:27"}}, {"type": "Feature", "geometry": {"type": "Point", "coordinates": [125.855782, 9.247139]}, "properties": {"Data Type": "Regional", "Country": "Philippines", "City": "Caraga", "Current Cases": "3", "Total Cases": "3", "Deceased": "0", "Recovered": "0", "Total Cases/1M pop": "0", "Deaths/1M pop": "0", "Total Tests": "0", "Last Updated": "2020-05-04 16:50:27"}}, {"type": "Feature", "geometry": {"type": "Point", "coordinates": [120.028403, 5.850623]}, "properties": {"Data Type": "Regional", "Country": "Philippines", "City": "Bangsamoro", "Current Cases": "1", "Total Cases": "11", "Deceased": "3", "Recovered": "7", "Total Cases/1M pop": "0", "Deaths/1M pop": "0", "Total Tests": "0", "Last Updated": "2020-05-04 16:50:27"}}, {"type": "Feature", "geometry": {"type": "Point", "coordinates": [128.6018, 35.8713]}, "properties": {"Data Type": "Regional", "Country": "South Korea", "City": "Daegu", "Current Cases": "6679", "Total Cases": "6845", "Deceased": "166", "Recovered": "0", "Total Cases/1M pop": "0", "Deaths/1M pop": "0", "Total Tests": "0", "Last Updated": "2020-05-04 16:50:27"}}, {"type": "Feature", "geometry": {"type": "Point", "coordinates": [128.5058, 36.5754]}, "properties": {"Data Type": "Regional", "Country": "South Korea", "City": "Gyeongbuk", "Current Cases": "1312", "Total Cases": "1364", "Deceased": "52", "Recovered": "0", "Total Cases/1M pop": "0", "Deaths/1M pop": "0", "Total Tests": "0", "Last Updated": "2020-05-04 16:50:27"}}, {"type": "Feature", "geometry": {"type": "Point", "coordinates": [127.0095, 37.2752]}, "properties": {"Data Type": "Regional", "Country": "South Korea", "City": "Gyeonggi", "Current Cases": "648", "Total Cases": "662", "Deceased": "14", "Recovered": "0", "Total Cases/1M pop": "0", "Deaths/1M pop": "0", "Total Tests": "0", "Last Updated": "2020-05-04 16:50:27"}}, {"type": "Feature", "geometry": {"type": "Point", "coordinates": [126.978291, 37.566679]}, "properties": {"Data Type": "Regional", "Country": "South Korea", "City": "Seoul", "Current Cases": "627", "Total Cases": "629", "Deceased": "2", "Recovered": "0", "Total Cases/1M pop": "0", "Deaths/1M pop": "0", "Total Tests": "0", "Last Updated": "2020-05-04 16:50:27"}}, {"type": "Feature", "geometry": {"type": "Point", "coordinates": [127.696119, 36.638392]}, "properties": {"Data Type": "Regional", "Country": "South Korea", "City": "Airport screening", "Current Cases": "430", "Total Cases": "430", "Deceased": "0", "Recovered": "0", "Total Cases/1M pop": "0", "Deaths/1M pop": "0", "Total Tests": "0", "Last Updated": "2020-05-04 16:50:27"}}, {"type": "Feature", "geometry": {"type": "Point", "coordinates": [126.6729, 36.6593]}, "properties": {"Data Type": "Regional", "Country": "South Korea", "City": "Chungnam", "Current Cases": "141", "Total Cases": "141", "Deceased": "0", "Recovered": "0", "Total Cases/1M pop": "0", "Deaths/1M pop": "0", "Total Tests": "0", "Last Updated": "2020-05-04 16:50:27"}}, {"type": "Feature", "geometry": {"type": "Point", "coordinates": [129.075236, 35.179953]}, "properties": {"Data Type": "Regional", "Country": "South Korea", "City": "Busan", "Current Cases": "133", "Total Cases": "136", "Deceased": "3", "Recovered": "0", "Total Cases/1M pop": "0", "Deaths/1M pop": "0", "Total Tests": "0", "Last Updated": "2020-05-04 16:50:27"}}, {"type": "Feature", "geometry": {"type": "Point", "coordinates": [128.6925, 35.2382]}, "properties": {"Data Type": "Regional", "Country": "South Korea", "City": "Gyeongnam", "Current Cases": "117", "Total Cases": "117", "Deceased": "0", "Recovered": "0", "Total Cases/1M pop": "0", "Deaths/1M pop": "0", "Total Tests": "0", "Last Updated": "2020-05-04 16:50:27"}}, {"type": "Feature", "geometry": {"type": "Point", "coordinates": [126.7052, 37.456]}, "properties": {"Data Type": "Regional", "Country": "South Korea", "City": "Incheon", "Current Cases": "92", "Total Cases": "92", "Deceased": "0", "Recovered": "0", "Total Cases/1M pop": "0", "Deaths/1M pop": "0", "Total Tests": "0", "Last Updated": "2020-05-04 16:50:27"}}, {"type": "Feature", "geometry": {"type": "Point", "coordinates": [127.7297, 37.885]}, "properties": {"Data Type": "Regional", "Country": "South Korea", "City": "Gangwon", "Current Cases": "51", "Total Cases": "53", "Deceased": "2", "Recovered": "0", "Total Cases/1M pop": "0", "Deaths/1M pop": "0", "Total Tests": "0", "Last Updated": "2020-05-04 16:50:27"}}, {"type": "Feature", "geometry": {"type": "Point", "coordinates": [127.289, 36.48]}, "properties": {"Data Type": "Regional", "Country": "South Korea", "City": "Sejong", "Current Cases": "46", "Total Cases": "46", "Deceased": "0", "Recovered": "0", "Total Cases/1M pop": "0", "Deaths/1M pop": "0", "Total Tests": "0", "Last Updated": "2020-05-04 16:50:27"}}, {"type": "Feature", "geometry": {"type": "Point", "coordinates": [127.4915, 36.6357]}, "properties": {"Data Type": "Regional", "Country": "South Korea", "City": "Chungbuk", "Current Cases": "45", "Total Cases": "45", "Deceased": "0", "Recovered": "0", "Total Cases/1M pop": "0", "Deaths/1M pop": "0", "Total Tests": "0", "Last Updated": "2020-05-04 16:50:27"}}, {"type": "Feature", "geometry": {"type": "Point", "coordinates": [129.311914, 35.53917]}, "properties": {"Data Type": "Regional", "Country": "South Korea", "City": "Ulsan", "Current Cases": "42", "Total Cases": "43", "Deceased": "1", "Recovered": "0", "Total Cases/1M pop": "0", "Deaths/1M pop": "0", "Total Tests": "0", "Last Updated": "2020-05-04 16:50:27"}}, {"type": "Feature", "geometry": {"type": "Point", "coordinates": [127.3848, 36.3496]}, "properties": {"Data Type": "Regional", "Country": "South Korea", "City": "Daejeon", "Current Cases": "40", "Total Cases": "40", "Deceased": "0", "Recovered": "0", "Total Cases/1M pop": "0", "Deaths/1M pop": "0", "Total Tests": "0", "Last Updated": "2020-05-04 16:50:27"}}, {"type": "Feature", "geometry": {"type": "Point", "coordinates": [126.851509, 35.159577]}, "properties": {"Data Type": "Regional", "Country": "South Korea", "City": "Gwangju", "Current Cases": "30", "Total Cases": "30", "Deceased": "0", "Recovered": "0", "Total Cases/1M pop": "0", "Deaths/1M pop": "0", "Total Tests": "0", "Last Updated": "2020-05-04 16:50:27"}}, {"type": "Feature", "geometry": {"type": "Point", "coordinates": [127.109, 35.8199]}, "properties": {"Data Type": "Regional", "Country": "South Korea", "City": "Jeonbuk", "Current Cases": "17", "Total Cases": "17", "Deceased": "0", "Recovered": "0", "Total Cases/1M pop": "0", "Deaths/1M pop": "0", "Total Tests": "0", "Last Updated": "2020-05-04 16:50:27"}}, {"type": "Feature", "geometry": {"type": "Point", "coordinates": [126.4629, 34.8159]}, "properties": {"Data Type": "Regional", "Country": "South Korea", "City": "Jeonnam", "Current Cases": "15", "Total Cases": "15", "Deceased": "0", "Recovered": "0", "Total Cases/1M pop": "0", "Deaths/1M pop": "0", "Total Tests": "0", "Last Updated": "2020-05-04 16:50:27"}}, {"type": "Feature", "geometry": {"type": "Point", "coordinates": [126.562665, 33.393992]}, "properties": {"Data Type": "Regional", "Country": "South Korea", "City": "Jeju", "Current Cases": "13", "Total Cases": "13", "Deceased": "0", "Recovered": "0", "Total Cases/1M pop": "0", "Deaths/1M pop": "0", "Total Tests": "0", "Last Updated": "2020-05-04 16:50:27"}}, {"type": "Feature", "geometry": {"type": "Point", "coordinates": [92.577133, 10.218834]}, "properties": {"Data Type": "Regional", "Country": "India", "City": "Andaman and Nicobar Islands", "Current Cases": "1", "Total Cases": "33", "Deceased": "0", "Recovered": "32", "Total Cases/1M pop": "0", "Deaths/1M pop": "0", "Total Tests": "0", "Last Updated": "2020-05-04 16:50:27"}}, {"type": "Feature", "geometry": {"type": "Point", "coordinates": [80.186381, 15.924091]}, "properties": {"Data Type": "Regional", "Country": "India", "City": "Andhra Pradesh", "Current Cases": "1090", "Total Cases": "1650", "Deceased": "36", "Recovered": "524", "Total Cases/1M pop": "0", "Deaths/1M pop": "0", "Total Tests": "0", "Last Updated": "2020-05-04 16:50:27"}}, {"type": "Feature", "geometry": {"type": "Point", "coordinates": [96.459723, 27.689171]}, "properties": {"Data Type": "Regional", "Country": "India", "City": "Arunachal Pradesh", "Current Cases": "0", "Total Cases": "1", "Deceased": "0", "Recovered": "1", "Total Cases/1M pop": "0", "Deaths/1M pop": "0", "Total Tests": "0", "Last Updated": "2020-05-04 16:50:27"}}, {"type": "Feature", "geometry": {"type": "Point", "coordinates": [93.25513, 26.407384]}, "properties": {"Data Type": "Regional", "Country": "India", "City": "Assam", "Current Cases": "10", "Total Cases": "43", "Deceased": "1", "Recovered": "32", "Total Cases/1M pop": "0", "Deaths/1M pop": "0", "Total Tests": "0", "Last Updated": "2020-05-04 16:50:27"}}, {"type": "Feature", "geometry": {"type": "Point", "coordinates": [85.906508, 25.644085]}, "properties": {"Data Type": "Regional", "Country": "India", "City": "Bihar", "Current Cases": "388", "Total Cases": "517", "Deceased": "4", "Recovered": "125", "Total Cases/1M pop": "0", "Deaths/1M pop": "0", "Total Tests": "0", "Last Updated": "2020-05-04 16:50:27"}}, {"type": "Feature", "geometry": {"type": "Point", "coordinates": [76.764655, 30.719402]}, "properties": {"Data Type": "Regional", "Country": "India", "City": "Chandigarh", "Current Cases": "75", "Total Cases": "94", "Deceased": "0", "Recovered": "19", "Total Cases/1M pop": "0", "Deaths/1M pop": "0", "Total Tests": "0", "Last Updated": "2020-05-04 16:50:27"}}, {"type": "Feature", "geometry": {"type": "Point", "coordinates": [81.840635, 21.663736]}, "properties": {"Data Type": "Regional", "Country": "India", "City": "Chhattisgarh", "Current Cases": "21", "Total Cases": "57", "Deceased": "0", "Recovered": "36", "Total Cases/1M pop": "0", "Deaths/1M pop": "0", "Total Tests": "0", "Last Updated": "2020-05-04 16:50:27"}}, {"type": "Feature", "geometry": {"type": "Point", "coordinates": [77.221939, 28.651718]}, "properties": {"Data Type": "Regional", "Country": "India", "City": "Delhi", "Current Cases": "3123", "Total Cases": "4549", "Deceased": "64", "Recovered": "1362", "Total Cases/1M pop": "0", "Deaths/1M pop": "0", "Total Tests": "0", "Last Updated": "2020-05-04 16:50:27"}}, {"type": "Feature", "geometry": {"type": "Point", "coordinates": [74.085513, 15.300454]}, "properties": {"Data Type": "Regional", "Country": "India", "City": "Goa", "Current Cases": "0", "Total Cases": "7", "Deceased": "0", "Recovered": "7", "Total Cases/1M pop": "0", "Deaths/1M pop": "0", "Total Tests": "0", "Last Updated": "2020-05-04 16:50:27"}}, {"type": "Feature", "geometry": {"type": "Point", "coordinates": [72.031497, 22.415408]}, "properties": {"Data Type": "Regional", "Country": "India", "City": "Gujarat", "Current Cases": "4096", "Total Cases": "5428", "Deceased": "290", "Recovered": "1042", "Total Cases/1M pop": "0", "Deaths/1M pop": "0", "Total Tests": "0", "Last Updated": "2020-05-04 16:50:27"}}, {"type": "Feature", "geometry": {"type": "Point", "coordinates": [76.0, 29.0]}, "properties": {"Data Type": "Regional", "Country": "India", "City": "Haryana", "Current Cases": "192", "Total Cases": "442", "Deceased": "5", "Recovered": "245", "Total Cases/1M pop": "0", "Deaths/1M pop": "0", "Total Tests": "0", "Last Updated": "2020-05-04 16:50:27"}}, {"type": "Feature", "geometry": {"type": "Point", "coordinates": [77.349321, 31.81676]}, "properties": {"Data Type": "Regional", "Country": "India", "City": "Himachal Pradesh", "Current Cases": "5", "Total Cases": "40", "Deceased": "1", "Recovered": "34", "Total Cases/1M pop": "0", "Deaths/1M pop": "0", "Total Tests": "0", "Last Updated": "2020-05-04 16:50:27"}}, {"type": "Feature", "geometry": {"type": "Point", "coordinates": [76.797289, 34.047656]}, "properties": {"Data Type": "Regional", "Country": "India", "City": "Jammu and Kashmir", "Current Cases": "406", "Total Cases": "701", "Deceased": "8", "Recovered": "287", "Total Cases/1M pop": "0", "Deaths/1M pop": "0", "Total Tests": "0", "Last Updated": "2020-05-04 16:50:27"}}, {"type": "Feature", "geometry": {"type": "Point", "coordinates": [85.25573, 23.455981]}, "properties": {"Data Type": "Regional", "Country": "India", "City": "Jharkhand", "Current Cases": "90", "Total Cases": "115", "Deceased": "3", "Recovered": "22", "Total Cases/1M pop": "0", "Deaths/1M pop": "0", "Total Tests": "0", "Last Updated": "2020-05-04 16:50:27"}}, {"type": "Feature", "geometry": {"type": "Point", "coordinates": [75.722352, 14.52039]}, "properties": {"Data Type": "Regional", "Country": "India", "City": "Karnataka", "Current Cases": "312", "Total Cases": "642", "Deceased": "26", "Recovered": "304", "Total Cases/1M pop": "0", "Deaths/1M pop": "0", "Total Tests": "0", "Last Updated": "2020-05-04 16:50:27"}}, {"type": "Feature", "geometry": {"type": "Point", "coordinates": [76.51204, 10.352874]}, "properties": {"Data Type": "Regional", "Country": "India", "City": "Kerala", "Current Cases": "95", "Total Cases": "500", "Deceased": "4", "Recovered": "401", "Total Cases/1M pop": "0", "Deaths/1M pop": "0", "Total Tests": "0", "Last Updated": "2020-05-04 16:50:27"}}, {"type": "Feature", "geometry": {"type": "Point", "coordinates": [77.656858, 33.945641]}, "properties": {"Data Type": "Regional", "Country": "India", "City": "Ladakh", "Current Cases": "24", "Total Cases": "41", "Deceased": "0", "Recovered": "17", "Total Cases/1M pop": "0", "Deaths/1M pop": "0", "Total Tests": "0", "Last Updated": "2020-05-04 16:50:27"}}, {"type": "Feature", "geometry": {"type": "Point", "coordinates": [72.817107, 10.883277]}, "properties": {"Data Type": "Regional", "Country": "India", "City": "Lakshadweep", "Current Cases": "0", "Total Cases": "0", "Deceased": "0", "Recovered": "0", "Total Cases/1M pop": "0", "Deaths/1M pop": "0", "Total Tests": "0", "Last Updated": "2020-05-04 16:50:27"}}, {"type": "Feature", "geometry": {"type": "Point", "coordinates": [77.534072, 23.814342]}, "properties": {"Data Type": "Regional", "Country": "India", "City": "Madhya Pradesh", "Current Cases": "1979", "Total Cases": "2942", "Deceased": "165", "Recovered": "798", "Total Cases/1M pop": "0", "Deaths/1M pop": "0", "Total Tests": "0", "Last Updated": "2020-05-04 16:50:27"}}, {"type": "Feature", "geometry": {"type": "Point", "coordinates": [76.055457, 19.531932]}, "properties": {"Data Type": "Regional", "Country": "India", "City": "Maharashtra", "Current Cases": "10311", "Total Cases": "12974", "Deceased": "548", "Recovered": "2115", "Total Cases/1M pop": "0", "Deaths/1M pop": "0", "Total Tests": "0", "Last Updated": "2020-05-04 16:50:27"}}, {"type": "Feature", "geometry": {"type": "Point", "coordinates": [93.922939, 24.720882]}, "properties": {"Data Type": "Regional", "Country": "India", "City": "Manipur", "Current Cases": "0", "Total Cases": "2", "Deceased": "0", "Recovered": "2", "Total Cases/1M pop": "0", "Deaths/1M pop": "0", "Total Tests": "0", "Last Updated": "2020-05-04 16:50:27"}}, {"type": "Feature", "geometry": {"type": "Point", "coordinates": [91.29991, 25.537943]}, "properties": {"Data Type": "Regional", "Country": "India", "City": "Meghalaya", "Current Cases": "11", "Total Cases": "12", "Deceased": "1", "Recovered": "0", "Total Cases/1M pop": "0", "Deaths/1M pop": "0", "Total Tests": "0", "Last Updated": "2020-05-04 16:50:27"}}, {"type": "Feature", "geometry": {"type": "Point", "coordinates": [92.868761, 23.214617]}, "properties": {"Data Type": "Regional", "Country": "India", "City": "Mizoram", "Current Cases": "1", "Total Cases": "1", "Deceased": "0", "Recovered": "0", "Total Cases/1M pop": "0", "Deaths/1M pop": "0", "Total Tests": "0", "Last Updated": "2020-05-04 16:50:27"}}, {"type": "Feature", "geometry": {"type": "Point", "coordinates": [94.588491, 26.163056]}, "properties": {"Data Type": "Regional", "Country": "India", "City": "Nagaland", "Current Cases": "0", "Total Cases": "0", "Deceased": "0", "Recovered": "0", "Total Cases/1M pop": "0", "Deaths/1M pop": "0", "Total Tests": "0", "Last Updated": "2020-05-04 16:50:27"}}, {"type": "Feature", "geometry": {"type": "Point", "coordinates": [84.689732, 20.543124]}, "properties": {"Data Type": "Regional", "Country": "India", "City": "Odisha", "Current Cases": "102", "Total Cases": "163", "Deceased": "1", "Recovered": "60", "Total Cases/1M pop": "0", "Deaths/1M pop": "0", "Total Tests": "0", "Last Updated": "2020-05-04 16:50:27"}}, {"type": "Feature", "geometry": {"type": "Point", "coordinates": [79.830645, 11.934057]}, "properties": {"Data Type": "Regional", "Country": "India", "City": "Puducherry", "Current Cases": "3", "Total Cases": "8", "Deceased": "0", "Recovered": "5", "Total Cases/1M pop": "0", "Deaths/1M pop": "0", "Total Tests": "0", "Last Updated": "2020-05-04 16:50:27"}}, {"type": "Feature", "geometry": {"type": "Point", "coordinates": [75.500484, 30.929321]}, "properties": {"Data Type": "Regional", "Country": "India", "City": "Punjab", "Current Cases": "964", "Total Cases": "1102", "Deceased": "21", "Recovered": "117", "Total Cases/1M pop": "0", "Deaths/1M pop": "0", "Total Tests": "0", "Last Updated": "2020-05-04 16:50:27"}}, {"type": "Feature", "geometry": {"type": "Point", "coordinates": [73.768455, 26.810578]}, "properties": {"Data Type": "Regional", "Country": "India", "City": "Rajasthan", "Current Cases": "1459", "Total Cases": "2886", "Deceased": "71", "Recovered": "1356", "Total Cases/1M pop": "0", "Deaths/1M pop": "0", "Total Tests": "0", "Last Updated": "2020-05-04 16:50:27"}}, {"type": "Feature", "geometry": {"type": "Point", "coordinates": [88.454136, 27.601029]}, "properties": {"Data Type": "Regional", "Country": "India", "City": "Sikkim", "Current Cases": "0", "Total Cases": "0", "Deceased": "0", "Recovered": "0", "Total Cases/1M pop": "0", "Deaths/1M pop": "0", "Total Tests": "0", "Last Updated": "2020-05-04 16:50:27"}}, {"type": "Feature", "geometry": {"type": "Point", "coordinates": [78.366535, 10.909433]}, "properties": {"Data Type": "Regional", "Country": "India", "City": "Tamil Nadu", "Current Cases": "1614", "Total Cases": "3023", "Deceased": "30", "Recovered": "1379", "Total Cases/1M pop": "0", "Deaths/1M pop": "0", "Total Tests": "0", "Last Updated": "2020-05-04 16:50:27"}}, {"type": "Feature", "geometry": {"type": "Point", "coordinates": [79.115166, 17.849592]}, "properties": {"Data Type": "Regional", "Country": "India", "City": "Telangana", "Current Cases": "563", "Total Cases": "1082", "Deceased": "29", "Recovered": "490", "Total Cases/1M pop": "0", "Deaths/1M pop": "0", "Total Tests": "0", "Last Updated": "2020-05-04 16:50:27"}}, {"type": "Feature", "geometry": {"type": "Point", "coordinates": [91.702509, 23.775082]}, "properties": {"Data Type": "Regional", "Country": "India", "City": "Tripura", "Current Cases": "14", "Total Cases": "16", "Deceased": "0", "Recovered": "2", "Total Cases/1M pop": "0", "Deaths/1M pop": "0", "Total Tests": "0", "Last Updated": "2020-05-04 16:50:27"}}, {"type": "Feature", "geometry": {"type": "Point", "coordinates": [80.859666, 27.130334]}, "properties": {"Data Type": "Regional", "Country": "India", "City": "Uttar Pradesh", "Current Cases": "1939", "Total Cases": "2742", "Deceased": "45", "Recovered": "758", "Total Cases/1M pop": "0", "Deaths/1M pop": "0", "Total Tests": "0", "Last Updated": "2020-05-04 16:50:27"}}, {"type": "Feature", "geometry": {"type": "Point", "coordinates": [79.321767, 30.091994]}, "properties": {"Data Type": "Regional", "Country": "India", "City": "Uttarakhand", "Current Cases": "20", "Total Cases": "60", "Deceased": "1", "Recovered": "39", "Total Cases/1M pop": "0", "Deaths/1M pop": "0", "Total Tests": "0", "Last Updated": "2020-05-04 16:50:27"}}, {"type": "Feature", "geometry": {"type": "Point", "coordinates": [87.685588, 22.996495]}, "properties": {"Data Type": "Regional", "Country": "India", "City": "West Bengal", "Current Cases": "777", "Total Cases": "963", "Deceased": "35", "Recovered": "151", "Total Cases/1M pop": "0", "Deaths/1M pop": "0", "Total Tests": "0", "Last Updated": "2020-05-04 16:50:27"}}, {"type": "Feature", "geometry": {"type": "Point", "coordinates": [97.025302, 4.368549]}, "properties": {"Data Type": "Regional", "Country": "Indonesia", "City": "Aceh", "Current Cases": "4", "Total Cases": "12", "Deceased": "1", "Recovered": "7", "Total Cases/1M pop": "0", "Deaths/1M pop": "0", "Total Tests": "0", "Last Updated": "2020-05-04 16:50:27"}}, {"type": "Feature", "geometry": {"type": "Point", "coordinates": [115.09064, -8.330498]}, "properties": {"Data Type": "Regional", "Country": "Indonesia", "City": "Bali", "Current Cases": "108", "Total Cases": "271", "Deceased": "4", "Recovered": "159", "Total Cases/1M pop": "0", "Deaths/1M pop": "0", "Total Tests": "0", "Last Updated": "2020-05-04 16:50:27"}}, {"type": "Feature", "geometry": {"type": "Point", "coordinates": [107.575714, -2.532904]}, "properties": {"Data Type": "Regional", "Country": "Indonesia", "City": "Bangka Belitung Islands", "Current Cases": "15", "Total Cases": "20", "Deceased": "1", "Recovered": "4", "Total Cases/1M pop": "0", "Deaths/1M pop": "0", "Total Tests": "0", "Last Updated": "2020-05-04 16:50:27"}}, {"type": "Feature", "geometry": {"type": "Point", "coordinates": [105.541028, -6.478003]}, "properties": {"Data Type": "Regional", "Country": "Indonesia", "City": "Banten", "Current Cases": "371", "Total Cases": "446", "Deceased": "41", "Recovered": "34", "Total Cases/1M pop": "0", "Deaths/1M pop": "0", "Total Tests": "0", "Last Updated": "2020-05-04 16:50:27"}}, {"type": "Feature", "geometry": {"type": "Point", "coordinates": [102.535983, -3.518676]}, "properties": {"Data Type": "Regional", "Country": "Indonesia", "City": "Bengkulu", "Current Cases": "10", "Total Cases": "12", "Deceased": "1", "Recovered": "1", "Total Cases/1M pop": "0", "Deaths/1M pop": "0", "Total Tests": "0", "Last Updated": "2020-05-04 16:50:27"}}, {"type": "Feature", "geometry": {"type": "Point", "coordinates": [110.371649, -5.625965]}, "properties": {"Data Type": "Regional", "Country": "Indonesia", "City": "Central Java", "Current Cases": "624", "Total Cases": "798", "Deceased": "62", "Recovered": "112", "Total Cases/1M pop": "0", "Deaths/1M pop": "0", "Total Tests": "0", "Last Updated": "2020-05-04 16:50:27"}}, {"type": "Feature", "geometry": {"type": "Point", "coordinates": [113.290331, -1.499583]}, "properties": {"Data Type": "Regional", "Country": "Indonesia", "City": "Central Kalimantan", "Current Cases": "158", "Total Cases": "180", "Deceased": "7", "Recovered": "15", "Total Cases/1M pop": "0", "Deaths/1M pop": "0", "Total Tests": "0", "Last Updated": "2020-05-04 16:50:27"}}, {"type": "Feature", "geometry": {"type": "Point", "coordinates": [120.808856, -1.693779]}, "properties": {"Data Type": "Regional", "Country": "Indonesia", "City": "Central Sulawesi", "Current Cases": "45", "Total Cases": "59", "Deceased": "3", "Recovered": "11", "Total Cases/1M pop": "0", "Deaths/1M pop": "0", "Total Tests": "0", "Last Updated": "2020-05-04 16:50:27"}}, {"type": "Feature", "geometry": {"type": "Point", "coordinates": [112.49142, -7.69774]}, "properties": {"Data Type": "Regional", "Country": "Indonesia", "City": "East Java", "Current Cases": "829", "Total Cases": "1124", "Deceased": "117", "Recovered": "178", "Total Cases/1M pop": "0", "Deaths/1M pop": "0", "Total Tests": "0", "Last Updated": "2020-05-04 16:50:27"}}, {"type": "Feature", "geometry": {"type": "Point", "coordinates": [116.241998, 0.78844]}, "properties": {"Data Type": "Regional", "Country": "Indonesia", "City": "East Kalimantan", "Current Cases": "153", "Total Cases": "167", "Deceased": "1", "Recovered": "13", "Total Cases/1M pop": "0", "Deaths/1M pop": "0", "Total Tests": "0", "Last Updated": "2020-05-04 16:50:27"}}, {"type": "Feature", "geometry": {"type": "Point", "coordinates": [120.697858, -8.565679]}, "properties": {"Data Type": "Regional", "Country": "Indonesia", "City": "East Nusa Tenggara", "Current Cases": "9", "Total Cases": "10", "Deceased": "0", "Recovered": "1", "Total Cases/1M pop": "0", "Deaths/1M pop": "0", "Total Tests": "0", "Last Updated": "2020-05-04 16:50:27"}}, {"type": "Feature", "geometry": {"type": "Point", "coordinates": [122.455593, 0.718617]}, "properties": {"Data Type": "Regional", "Country": "Indonesia", "City": "Gorontalo", "Current Cases": "12", "Total Cases": "15", "Deceased": "1", "Recovered": "2", "Total Cases/1M pop": "0", "Deaths/1M pop": "0", "Total Tests": "0", "Last Updated": "2020-05-04 16:50:27"}}, {"type": "Feature", "geometry": {"type": "Point", "coordinates": [106.827183, -6.175394]}, "properties": {"Data Type": "Regional", "Country": "Indonesia", "City": "Jakarta", "Current Cases": "3499", "Total Cases": "4539", "Deceased": "408", "Recovered": "632", "Total Cases/1M pop": "0", "Deaths/1M pop": "0", "Total Tests": "0", "Last Updated": "2020-05-04 16:50:27"}}, {"type": "Feature", "geometry": {"type": "Point", "coordinates": [102.779699, -1.611572]}, "properties": {"Data Type": "Regional", "Country": "Indonesia", "City": "Jambi", "Current Cases": "37", "Total Cases": "38", "Deceased": "0", "Recovered": "1", "Total Cases/1M pop": "0", "Deaths/1M pop": "0", "Total Tests": "0", "Last Updated": "2020-05-04 16:50:27"}}, {"type": "Feature", "geometry": {"type": "Point", "coordinates": [105.027299, -4.855504]}, "properties": {"Data Type": "Regional", "Country": "Indonesia", "City": "Lampung", "Current Cases": "32", "Total Cases": "54", "Deceased": "5", "Recovered": "17", "Total Cases/1M pop": "0", "Deaths/1M pop": "0", "Total Tests": "0", "Last Updated": "2020-05-04 16:50:27"}}, {"type": "Feature", "geometry": {"type": "Point", "coordinates": [130.358382, -5.358052]}, "properties": {"Data Type": "Regional", "Country": "Indonesia", "City": "Maluku", "Current Cases": "11", "Total Cases": "23", "Deceased": "0", "Recovered": "12", "Total Cases/1M pop": "0", "Deaths/1M pop": "0", "Total Tests": "0", "Last Updated": "2020-05-04 16:50:27"}}, {"type": "Feature", "geometry": {"type": "Point", "coordinates": [116.204931, 3.023582]}, "properties": {"Data Type": "Regional", "Country": "Indonesia", "City": "North Kalimantan", "Current Cases": "124", "Total Cases": "130", "Deceased": "1", "Recovered": "5", "Total Cases/1M pop": "0", "Deaths/1M pop": "0", "Total Tests": "0", "Last Updated": "2020-05-04 16:50:27"}}, {"type": "Feature", "geometry": {"type": "Point", "coordinates": [127.972022, 0.630122]}, "properties": {"Data Type": "Regional", "Country": "Indonesia", "City": "North Maluku", "Current Cases": "45", "Total Cases": "50", "Deceased": "0", "Recovered": "5", "Total Cases/1M pop": "0", "Deaths/1M pop": "0", "Total Tests": "0", "Last Updated": "2020-05-04 16:50:27"}}, {"type": "Feature", "geometry": {"type": "Point", "coordinates": [124.090151, 0.655569]}, "properties": {"Data Type": "Regional", "Country": "Indonesia", "City": "North Sulawesi", "Current Cases": "24", "Total Cases": "45", "Deceased": "4", "Recovered": "17", "Total Cases/1M pop": "0", "Deaths/1M pop": "0", "Total Tests": "0", "Last Updated": "2020-05-04 16:50:27"}}, {"type": "Feature", "geometry": {"type": "Point", "coordinates": [99.38122, 2.192352]}, "properties": {"Data Type": "Regional", "Country": "Indonesia", "City": "North Sumatra", "Current Cases": "75", "Total Cases": "129", "Deceased": "13", "Recovered": "41", "Total Cases/1M pop": "0", "Deaths/1M pop": "0", "Total Tests": "0", "Last Updated": "2020-05-04 16:50:27"}}, {"type": "Feature", "geometry": {"type": "Point", "coordinates": [137.996614, -4.115019]}, "properties": {"Data Type": "Regional", "Country": "Indonesia", "City": "Papua", "Current Cases": "186", "Total Cases": "240", "Deceased": "6", "Recovered": "48", "Total Cases/1M pop": "0", "Deaths/1M pop": "0", "Total Tests": "0", "Last Updated": "2020-05-04 16:50:27"}}, {"type": "Feature", "geometry": {"type": "Point", "coordinates": [101.655618, 0.940008]}, "properties": {"Data Type": "Regional", "Country": "Indonesia", "City": "Riau", "Current Cases": "26", "Total Cases": "58", "Deceased": "6", "Recovered": "26", "Total Cases/1M pop": "0", "Deaths/1M pop": "0", "Total Tests": "0", "Last Updated": "2020-05-04 16:50:27"}}, {"type": "Feature", "geometry": {"type": "Point", "coordinates": [104.580375, -0.154785]}, "properties": {"Data Type": "Regional", "Country": "Indonesia", "City": "Riau Islands", "Current Cases": "41", "Total Cases": "92", "Deceased": "9", "Recovered": "42", "Total Cases/1M pop": "0", "Deaths/1M pop": "0", "Total Tests": "0", "Last Updated": "2020-05-04 16:50:27"}}, {"type": "Feature", "geometry": {"type": "Point", "coordinates": [115.370072, -2.928569]}, "properties": {"Data Type": "Regional", "Country": "Indonesia", "City": "South Kalimantan", "Current Cases": "165", "Total Cases": "198", "Deceased": "9", "Recovered": "24", "Total Cases/1M pop": "0", "Deaths/1M pop": "0", "Total Tests": "0", "Last Updated": "2020-05-04 16:50:27"}}, {"type": "Feature", "geometry": {"type": "Point", "coordinates": [119.947191, -3.644672]}, "properties": {"Data Type": "Regional", "Country": "Indonesia", "City": "South Sulawesi", "Current Cases": "368", "Total Cases": "607", "Deceased": "40", "Recovered": "199", "Total Cases/1M pop": "0", "Deaths/1M pop": "0", "Total Tests": "0", "Last Updated": "2020-05-04 16:50:27"}}, {"type": "Feature", "geometry": {"type": "Point", "coordinates": [104.093055, -3.126684]}, "properties": {"Data Type": "Regional", "Country": "Indonesia", "City": "South Sumatra", "Current Cases": "137", "Total Cases": "185", "Deceased": "5", "Recovered": "43", "Total Cases/1M pop": "0", "Deaths/1M pop": "0", "Total Tests": "0", "Last Updated": "2020-05-04 16:50:27"}}, {"type": "Feature", "geometry": {"type": "Point", "coordinates": [121.727965, -3.54912]}, "properties": {"Data Type": "Regional", "Country": "Indonesia", "City": "Southeast Sulawesi", "Current Cases": "51", "Total Cases": "64", "Deceased": "2", "Recovered": "11", "Total Cases/1M pop": "0", "Deaths/1M pop": "0", "Total Tests": "0", "Last Updated": "2020-05-04 16:50:27"}}, {"type": "Feature", "geometry": {"type": "Point", "coordinates": [110.367226, -7.977838]}, "properties": {"Data Type": "Regional", "Country": "Indonesia", "City": "Special Region of Yogyakarta", "Current Cases": "58", "Total Cases": "115", "Deceased": "7", "Recovered": "50", "Total Cases/1M pop": "0", "Deaths/1M pop": "0", "Total Tests": "0", "Last Updated": "2020-05-04 16:50:27"}}, {"type": "Feature", "geometry": {"type": "Point", "coordinates": [107.640472, -6.88919]}, "properties": {"Data Type": "Regional", "Country": "Indonesia", "City": "West Java", "Current Cases": "1007", "Total Cases": "1252", "Deceased": "86", "Recovered": "159", "Total Cases/1M pop": "0", "Deaths/1M pop": "0", "Total Tests": "0", "Last Updated": "2020-05-04 16:50:27"}}, {"type": "Feature", "geometry": {"type": "Point", "coordinates": [111.09689, -0.132239]}, "properties": {"Data Type": "Regional", "Country": "Indonesia", "City": "West Kalimantan", "Current Cases": "62", "Total Cases": "73", "Deceased": "3", "Recovered": "8", "Total Cases/1M pop": "0", "Deaths/1M pop": "0", "Total Tests": "0", "Last Updated": "2020-05-04 16:50:27"}}, {"type": "Feature", "geometry": {"type": "Point", "coordinates": [117.146169, -8.789286]}, "properties": {"Data Type": "Regional", "Country": "Indonesia", "City": "West Nusa Tenggara", "Current Cases": "229", "Total Cases": "269", "Deceased": "4", "Recovered": "36", "Total Cases/1M pop": "0", "Deaths/1M pop": "0", "Total Tests": "0", "Last Updated": "2020-05-04 16:50:27"}}, {"type": "Feature", "geometry": {"type": "Point", "coordinates": [132.902528, -1.384236]}, "properties": {"Data Type": "Regional", "Country": "Indonesia", "City": "West Papua", "Current Cases": "42", "Total Cases": "43", "Deceased": "1", "Recovered": "0", "Total Cases/1M pop": "0", "Deaths/1M pop": "0", "Total Tests": "0", "Last Updated": "2020-05-04 16:50:27"}}, {"type": "Feature", "geometry": {"type": "Point", "coordinates": [119.391896, -2.497455]}, "properties": {"Data Type": "Regional", "Country": "Indonesia", "City": "West Sulawesi", "Current Cases": "39", "Total Cases": "44", "Deceased": "1", "Recovered": "4", "Total Cases/1M pop": "0", "Deaths/1M pop": "0", "Total Tests": "0", "Last Updated": "2020-05-04 16:50:27"}}, {"type": "Feature", "geometry": {"type": "Point", "coordinates": [100.072228, -1.33589]}, "properties": {"Data Type": "Regional", "Country": "Indonesia", "City": "West Sumatra", "Current Cases": "151", "Total Cases": "203", "Deceased": "15", "Recovered": "37", "Total Cases/1M pop": "0", "Deaths/1M pop": "0", "Total Tests": "0", "Last Updated": "2020-05-04 16:50:27"}}, {"type": "Feature", "geometry": {"type": "Point", "coordinates": [139.759455, 35.682839]}, "properties": {"Data Type": "Regional", "Country": "Japan", "City": "Tokyo", "Current Cases": "2916", "Total Cases": "4655", "Deceased": "150", "Recovered": "1589", "Total Cases/1M pop": "0", "Deaths/1M pop": "0", "Total Tests": "0", "Last Updated": "2020-05-04 16:50:27"}}, {"type": "Feature", "geometry": {"type": "Point", "coordinates": [135.490357, 34.619881]}, "properties": {"Data Type": "Regional", "Country": "Japan", "City": "Osaka", "Current Cases": "885", "Total Cases": "1679", "Deceased": "50", "Recovered": "744", "Total Cases/1M pop": "0", "Deaths/1M pop": "0", "Total Tests": "0", "Last Updated": "2020-05-04 16:50:27"}}, {"type": "Feature", "geometry": {"type": "Point", "coordinates": [139.374753, 35.434294]}, "properties": {"Data Type": "Regional", "Country": "Japan", "City": "Kanagawa", "Current Cases": "894", "Total Cases": "1112", "Deceased": "41", "Recovered": "177", "Total Cases/1M pop": "0", "Deaths/1M pop": "0", "Total Tests": "0", "Last Updated": "2020-05-04 16:50:27"}}, {"type": "Feature", "geometry": {"type": "Point", "coordinates": [139.416011, 35.975417]}, "properties": {"Data Type": "Regional", "Country": "Japan", "City": "Saitama", "Current Cases": "499", "Total Cases": "907", "Deceased": "39", "Recovered": "369", "Total Cases/1M pop": "0", "Deaths/1M pop": "0", "Total Tests": "0", "Last Updated": "2020-05-04 16:50:27"}}, {"type": "Feature", "geometry": {"type": "Point", "coordinates": [142.951447, 43.433954]}, "properties": {"Data Type": "Regional", "Country": "Japan", "City": "Hokkaido", "Current Cases": "585", "Total Cases": "875", "Deceased": "42", "Recovered": "248", "Total Cases/1M pop": "0", "Deaths/1M pop": "0", "Total Tests": "0", "Last Updated": "2020-05-04 16:50:27"}}, {"type": "Feature", "geometry": {"type": "Point", "coordinates": [140.118126, 35.609985]}, "properties": {"Data Type": "Regional", "Country": "Japan", "City": "Chiba", "Current Cases": "663", "Total Cases": "857", "Deceased": "34", "Recovered": "160", "Total Cases/1M pop": "0", "Deaths/1M pop": "0", "Total Tests": "0", "Last Updated": "2020-05-04 16:50:27"}}, {"type": "Feature", "geometry": {"type": "Point", "coordinates": [134.860666, 34.914934]}, "properties": {"Data Type": "Regional", "Country": "Japan", "City": "Hyogo", "Current Cases": "555", "Total Cases": "668", "Deceased": "27", "Recovered": "86", "Total Cases/1M pop": "0", "Deaths/1M pop": "0", "Total Tests": "0", "Last Updated": "2020-05-04 16:50:27"}}, {"type": "Feature", "geometry": {"type": "Point", "coordinates": [130.618002, 33.625124]}, "properties": {"Data Type": "Regional", "Country": "Japan", "City": "Fukuoka", "Current Cases": "457", "Total Cases": "647", "Deceased": "19", "Recovered": "171", "Total Cases/1M pop": "0", "Deaths/1M pop": "0", "Total Tests": "0", "Last Updated": "2020-05-04 16:50:27"}}, {"type": "Feature", "geometry": {"type": "Point", "coordinates": [137.254574, 34.999164]}, "properties": {"Data Type": "Regional", "Country": "Japan", "City": "Aichi", "Current Cases": "381", "Total Cases": "490", "Deceased": "34", "Recovered": "75", "Total Cases/1M pop": "0", "Deaths/1M pop": "0", "Total Tests": "0", "Last Updated": "2020-05-04 16:50:27"}}, {"type": "Feature", "geometry": {"type": "Point", "coordinates": [135.755607, 35.021041]}, "properties": {"Data Type": "Regional", "Country": "Japan", "City": "Kyoto", "Current Cases": "154", "Total Cases": "334", "Deceased": "12", "Recovered": "168", "Total Cases/1M pop": "0", "Deaths/1M pop": "0", "Total Tests": "0", "Last Updated": "2020-05-04 16:50:27"}}, {"type": "Feature", "geometry": {"type": "Point", "coordinates": [136.816356, 36.988868]}, "properties": {"Data Type": "Regional", "Country": "Japan", "City": "Ishikawa", "Current Cases": "228", "Total Cases": "267", "Deceased": "16", "Recovered": "23", "Total Cases/1M pop": "0", "Deaths/1M pop": "0", "Total Tests": "0", "Last Updated": "2020-05-04 16:50:27"}}, {"type": "Feature", "geometry": {"type": "Point", "coordinates": [137.218353, 36.646802]}, "properties": {"Data Type": "Regional", "Country": "Japan", "City": "Toyama", "Current Cases": "156", "Total Cases": "211", "Deceased": "13", "Recovered": "42", "Total Cases/1M pop": "0", "Deaths/1M pop": "0", "Total Tests": "0", "Last Updated": "2020-05-04 16:50:27"}}, {"type": "Feature", "geometry": {"type": "Point", "coordinates": [140.470338, 36.286954]}, "properties": {"Data Type": "Regional", "Country": "Japan", "City": "Ibaraki", "Current Cases": "120", "Total Cases": "167", "Deceased": "9", "Recovered": "38", "Total Cases/1M pop": "0", "Deaths/1M pop": "0", "Total Tests": "0", "Last Updated": "2020-05-04 16:50:27"}}, {"type": "Feature", "geometry": {"type": "Point", "coordinates": [132.451816, 34.391606]}, "properties": {"Data Type": "Regional", "Country": "Japan", "City": "Hiroshima", "Current Cases": "109", "Total Cases": "164", "Deceased": "2", "Recovered": "53", "Total Cases/1M pop": "0", "Deaths/1M pop": "0", "Total Tests": "0", "Last Updated": "2020-05-04 16:50:27"}}, {"type": "Feature", "geometry": {"type": "Point", "coordinates": [136.239418, 33.218541]}, "properties": {"Data Type": "Regional", "Country": "Japan", "City": "Port Quarantine", "Current Cases": "155", "Total Cases": "155", "Deceased": "0", "Recovered": "0", "Total Cases/1M pop": "0", "Deaths/1M pop": "0", "Total Tests": "0", "Last Updated": "2020-05-04 16:50:27"}}, {"type": "Feature", "geometry": {"type": "Point", "coordinates": [137.046078, 35.786745]}, "properties": {"Data Type": "Regional", "Country": "Japan", "City": "Gifu", "Current Cases": "65", "Total Cases": "150", "Deceased": "6", "Recovered": "79", "Total Cases/1M pop": "0", "Deaths/1M pop": "0", "Total Tests": "0", "Last Updated": "2020-05-04 16:50:27"}}, {"type": "Feature", "geometry": {"type": "Point", "coordinates": [139.033483, 36.52198]}, "properties": {"Data Type": "Regional", "Country": "Japan", "City": "Gunma", "Current Cases": "117", "Total Cases": "146", "Deceased": "14", "Recovered": "15", "Total Cases/1M pop": "0", "Deaths/1M pop": "0", "Total Tests": "0", "Last Updated": "2020-05-04 16:50:27"}}, {"type": "Feature", "geometry": {"type": "Point", "coordinates": [128.02559, 26.570775]}, "properties": {"Data Type": "Regional", "Country": "Japan", "City": "Okinawa", "Current Cases": "116", "Total Cases": "145", "Deceased": "5", "Recovered": "24", "Total Cases/1M pop": "0", "Deaths/1M pop": "0", "Total Tests": "0", "Last Updated": "2020-05-04 16:50:27"}}, {"type": "Feature", "geometry": {"type": "Point", "coordinates": [136.606813, 35.92635]}, "properties": {"Data Type": "Regional", "Country": "Japan", "City": "Fukui", "Current Cases": "39", "Total Cases": "122", "Deceased": "8", "Recovered": "75", "Total Cases/1M pop": "0", "Deaths/1M pop": "0", "Total Tests": "0", "Last Updated": "2020-05-04 16:50:27"}}, {"type": "Feature", "geometry": {"type": "Point", "coordinates": [136.109385, 35.247154]}, "properties": {"Data Type": "Regional", "Country": "Japan", "City": "Shiga", "Current Cases": "61", "Total Cases": "97", "Deceased": "1", "Recovered": "35", "Total Cases/1M pop": "0", "Deaths/1M pop": "0", "Total Tests": "0", "Last Updated": "2020-05-04 16:50:27"}}, {"type": "Feature", "geometry": {"type": "Point", "coordinates": [140.976102, 38.388016]}, "properties": {"Data Type": "Regional", "Country": "Japan", "City": "Miyagi", "Current Cases": "27", "Total Cases": "88", "Deceased": "0", "Recovered": "61", "Total Cases/1M pop": "0", "Deaths/1M pop": "0", "Total Tests": "0", "Last Updated": "2020-05-04 16:50:27"}}, {"type": "Feature", "geometry": {"type": "Point", "coordinates": [135.881682, 34.296309]}, "properties": {"Data Type": "Regional", "Country": "Japan", "City": "Nara", "Current Cases": "47", "Total Cases": "87", "Deceased": "2", "Recovered": "38", "Total Cases/1M pop": "0", "Deaths/1M pop": "0", "Total Tests": "0", "Last Updated": "2020-05-04 16:50:27"}}, {"type": "Feature", "geometry": {"type": "Point", "coordinates": [140.459214, 37.75454]}, "properties": {"Data Type": "Regional", "Country": "Japan", "City": "Fukushima", "Current Cases": "59", "Total Cases": "78", "Deceased": "0", "Recovered": "19", "Total Cases/1M pop": "0", "Deaths/1M pop": "0", "Total Tests": "0", "Last Updated": "2020-05-04 16:50:27"}}, {"type": "Feature", "geometry": {"type": "Point", "coordinates": [138.766912, 37.645228]}, "properties": {"Data Type": "Regional", "Country": "Japan", "City": "Niigata", "Current Cases": "35", "Total Cases": "77", "Deceased": "0", "Recovered": "42", "Total Cases/1M pop": "0", "Deaths/1M pop": "0", "Total Tests": "0", "Last Updated": "2020-05-04 16:50:27"}}, {"type": "Feature", "geometry": {"type": "Point", "coordinates": [133.560624, 33.656902]}, "properties": {"Data Type": "Regional", "Country": "Japan", "City": "Kochi", "Current Cases": "22", "Total Cases": "74", "Deceased": "3", "Recovered": "49", "Total Cases/1M pop": "0", "Deaths/1M pop": "0", "Total Tests": "0", "Last Updated": "2020-05-04 16:50:27"}}, {"type": "Feature", "geometry": {"type": "Point", "coordinates": [138.09554, 34.933249]}, "properties": {"Data Type": "Regional", "Country": "Japan", "City": "Shizuoka", "Current Cases": "48", "Total Cases": "73", "Deceased": "1", "Recovered": "24", "Total Cases/1M pop": "0", "Deaths/1M pop": "0", "Total Tests": "0", "Last Updated": "2020-05-04 16:50:27"}}, {"type": "Feature", "geometry": {"type": "Point", "coordinates": [138.031902, 36.114395]}, "properties": {"Data Type": "Regional", "Country": "Japan", "City": "Nagano", "Current Cases": "49", "Total Cases": "72", "Deceased": "0", "Recovered": "23", "Total Cases/1M pop": "0", "Deaths/1M pop": "0", "Total Tests": "0", "Last Updated": "2020-05-04 16:50:27"}}, {"type": "Feature", "geometry": {"type": "Point", "coordinates": [140.083237, 38.474671]}, "properties": {"Data Type": "Regional", "Country": "Japan", "City": "Yamagata", "Current Cases": "19", "Total Cases": "69", "Deceased": "0", "Recovered": "50", "Total Cases/1M pop": "0", "Deaths/1M pop": "0", "Total Tests": "0", "Last Updated": "2020-05-04 16:50:27"}}, {"type": "Feature", "geometry": {"type": "Point", "coordinates": [135.593074, 33.807029]}, "properties": {"Data Type": "Regional", "Country": "Japan", "City": "Wakayama", "Current Cases": "29", "Total Cases": "62", "Deceased": "2", "Recovered": "31", "Total Cases/1M pop": "0", "Deaths/1M pop": "0", "Total Tests": "0", "Last Updated": "2020-05-04 16:50:27"}}, {"type": "Feature", "geometry": {"type": "Point", "coordinates": [131.427022, 33.181987]}, "properties": {"Data Type": "Regional", "Country": "Japan", "City": "Oita", "Current Cases": "28", "Total Cases": "60", "Deceased": "1", "Recovered": "31", "Total Cases/1M pop": "0", "Deaths/1M pop": "0", "Total Tests": "0", "Last Updated": "2020-05-04 16:50:27"}}, {"type": "Feature", "geometry": {"type": "Point", "coordinates": [138.638049, 35.639933]}, "properties": {"Data Type": "Regional", "Country": "Japan", "City": "Yamanashi", "Current Cases": "27", "Total Cases": "56", "Deceased": "0", "Recovered": "29", "Total Cases/1M pop": "0", "Deaths/1M pop": "0", "Total Tests": "0", "Last Updated": "2020-05-04 16:50:27"}}, {"type": "Feature", "geometry": {"type": "Point", "coordinates": [139.734143, 36.382466]}, "properties": {"Data Type": "Regional", "Country": "Japan", "City": "Tochigi", "Current Cases": "38", "Total Cases": "54", "Deceased": "0", "Recovered": "16", "Total Cases/1M pop": "0", "Deaths/1M pop": "0", "Total Tests": "0", "Last Updated": "2020-05-04 16:50:27"}}, {"type": "Feature", "geometry": {"type": "Point", "coordinates": [132.818527, 33.601365]}, "properties": {"Data Type": "Regional", "Country": "Japan", "City": "Ehime", "Current Cases": "18", "Total Cases": "48", "Deceased": "3", "Recovered": "27", "Total Cases/1M pop": "0", "Deaths/1M pop": "0", "Total Tests": "0", "Last Updated": "2020-05-04 16:50:27"}}, {"type": "Feature", "geometry": {"type": "Point", "coordinates": [130.634134, 32.645047]}, "properties": {"Data Type": "Regional", "Country": "Japan", "City": "Kumamoto", "Current Cases": "31", "Total Cases": "46", "Deceased": "2", "Recovered": "13", "Total Cases/1M pop": "0", "Deaths/1M pop": "0", "Total Tests": "0", "Last Updated": "2020-05-04 16:50:27"}}, {"type": "Feature", "geometry": {"type": "Point", "coordinates": [130.129659, 33.218541]}, "properties": {"Data Type": "Regional", "Country": "Japan", "City": "Saga", "Current Cases": "38", "Total Cases": "45", "Deceased": "0", "Recovered": "7", "Total Cases/1M pop": "0", "Deaths/1M pop": "0", "Total Tests": "0", "Last Updated": "2020-05-04 16:50:27"}}, {"type": "Feature", "geometry": {"type": "Point", "coordinates": [136.515449, 34.733969]}, "properties": {"Data Type": "Regional", "Country": "Japan", "City": "Mie", "Current Cases": "25", "Total Cases": "45", "Deceased": "1", "Recovered": "19", "Total Cases/1M pop": "0", "Deaths/1M pop": "0", "Total Tests": "0", "Last Updated": "2020-05-04 16:50:27"}}, {"type": "Feature", "geometry": {"type": "Point", "coordinates": [131.587385, 34.237961]}, "properties": {"Data Type": "Regional", "Country": "Japan", "City": "Yamaguchi", "Current Cases": "8", "Total Cases": "36", "Deceased": "0", "Recovered": "28", "Total Cases/1M pop": "0", "Deaths/1M pop": "0", "Total Tests": "0", "Last Updated": "2020-05-04 16:50:27"}}, {"type": "Feature", "geometry": {"type": "Point", "coordinates": [134.058658, 34.24801]}, "properties": {"Data Type": "Regional", "Country": "Japan", "City": "Kagawa", "Current Cases": "21", "Total Cases": "28", "Deceased": "0", "Recovered": "7", "Total Cases/1M pop": "0", "Deaths/1M pop": "0", "Total Tests": "0", "Last Updated": "2020-05-04 16:50:27"}}, {"type": "Feature", "geometry": {"type": "Point", "coordinates": [140.590121, 40.886943]}, "properties": {"Data Type": "Regional", "Country": "Japan", "City": "Aomori", "Current Cases": "12", "Total Cases": "26", "Deceased": "0", "Recovered": "14", "Total Cases/1M pop": "0", "Deaths/1M pop": "0", "Total Tests": "0", "Last Updated": "2020-05-04 16:50:27"}}, {"type": "Feature", "geometry": {"type": "Point", "coordinates": [132.537439, 34.941821]}, "properties": {"Data Type": "Regional", "Country": "Japan", "City": "Shimane", "Current Cases": "17", "Total Cases": "24", "Deceased": "0", "Recovered": "7", "Total Cases/1M pop": "0", "Deaths/1M pop": "0", "Total Tests": "0", "Last Updated": "2020-05-04 16:50:27"}}, {"type": "Feature", "geometry": {"type": "Point", "coordinates": [133.775926, 34.858133]}, "properties": {"Data Type": "Regional", "Country": "Japan", "City": "Okayama", "Current Cases": "13", "Total Cases": "23", "Deceased": "0", "Recovered": "10", "Total Cases/1M pop": "0", "Deaths/1M pop": "0", "Total Tests": "0", "Last Updated": "2020-05-04 16:50:27"}}, {"type": "Feature", "geometry": {"type": "Point", "coordinates": [129.787434, 33.115468]}, "properties": {"Data Type": "Regional", "Country": "Japan", "City": "Nagasaki", "Current Cases": "7", "Total Cases": "17", "Deceased": "1", "Recovered": "9", "Total Cases/1M pop": "0", "Deaths/1M pop": "0", "Total Tests": "0", "Last Updated": "2020-05-04 16:50:27"}}, {"type": "Feature", "geometry": {"type": "Point", "coordinates": [131.294542, 32.097681]}, "properties": {"Data Type": "Regional", "Country": "Japan", "City": "Miyazaki", "Current Cases": "6", "Total Cases": "17", "Deceased": "0", "Recovered": "11", "Total Cases/1M pop": "0", "Deaths/1M pop": "0", "Total Tests": "0", "Last Updated": "2020-05-04 16:50:27"}}, {"type": "Feature", "geometry": {"type": "Point", "coordinates": [140.342608, 39.68988]}, "properties": {"Data Type": "Regional", "Country": "Japan", "City": "Akita", "Current Cases": "3", "Total Cases": "16", "Deceased": "0", "Recovered": "13", "Total Cases/1M pop": "0", "Deaths/1M pop": "0", "Total Tests": "0", "Last Updated": "2020-05-04 16:50:27"}}, {"type": "Feature", "geometry": {"type": "Point", "coordinates": [130.547408, 31.521587]}, "properties": {"Data Type": "Regional", "Country": "Japan", "City": "Kagoshima", "Current Cases": "6", "Total Cases": "10", "Deceased": "0", "Recovered": "4", "Total Cases/1M pop": "0", "Deaths/1M pop": "0", "Total Tests": "0", "Last Updated": "2020-05-04 16:50:27"}}, {"type": "Feature", "geometry": {"type": "Point", "coordinates": [137.239418, 34.218541]}, "properties": {"Data Type": "Regional", "Country": "Japan", "City": "Unspecified", "Current Cases": "8", "Total Cases": "8", "Deceased": "0", "Recovered": "0", "Total Cases/1M pop": "0", "Deaths/1M pop": "0", "Total Tests": "0", "Last Updated": "2020-05-04 16:50:27"}}, {"type": "Feature", "geometry": {"type": "Point", "coordinates": [134.250963, 33.919642]}, "properties": {"Data Type": "Regional", "Country": "Japan", "City": "Tokushima", "Current Cases": "2", "Total Cases": "5", "Deceased": "0", "Recovered": "3", "Total Cases/1M pop": "0", "Deaths/1M pop": "0", "Total Tests": "0", "Last Updated": "2020-05-04 16:50:27"}}, {"type": "Feature", "geometry": {"type": "Point", "coordinates": [133.867852, 35.355508]}, "properties": {"Data Type": "Regional", "Country": "Japan", "City": "Tottori", "Current Cases": "2", "Total Cases": "3", "Deceased": "0", "Recovered": "1", "Total Cases/1M pop": "0", "Deaths/1M pop": "0", "Total Tests": "0", "Last Updated": "2020-05-04 16:50:27"}}, {"type": "Feature", "geometry": {"type": "Point", "coordinates": [100.81608, 13.753893]}, "properties": {"Data Type": "Regional", "Country": "Thailand", "City": "Bangkok", "Current Cases": "1515", "Total Cases": "1538", "Deceased": "23", "Recovered": "0", "Total Cases/1M pop": "0", "Deaths/1M pop": "0", "Total Tests": "0", "Last Updated": "2020-05-04 16:50:27"}}, {"type": "Feature", "geometry": {"type": "Point", "coordinates": [100.016566, 13.891842]}, "properties": {"Data Type": "Regional", "Country": "Thailand", "City": "Nakhon Pathom", "Current Cases": "22", "Total Cases": "22", "Deceased": "0", "Recovered": "0", "Total Cases/1M pop": "0", "Deaths/1M pop": "0", "Total Tests": "0", "Last Updated": "2020-05-04 16:50:27"}}, {"type": "Feature", "geometry": {"type": "Point", "coordinates": [100.345677, 13.861092]}, "properties": {"Data Type": "Regional", "Country": "Thailand", "City": "Nonthaburi", "Current Cases": "156", "Total Cases": "157", "Deceased": "1", "Recovered": "0", "Total Cases/1M pop": "0", "Deaths/1M pop": "0", "Total Tests": "0", "Last Updated": "2020-05-04 16:50:27"}}, {"type": "Feature", "geometry": {"type": "Point", "coordinates": [100.627729, 14.095578]}, "properties": {"Data Type": "Regional", "Country": "Thailand", "City": "Pathum Thani", "Current Cases": "38", "Total Cases": "39", "Deceased": "1", "Recovered": "0", "Total Cases/1M pop": "0", "Deaths/1M pop": "0", "Total Tests": "0", "Last Updated": "2020-05-04 16:50:27"}}, {"type": "Feature", "geometry": {"type": "Point", "coordinates": [100.818258, 13.653165]}, "properties": {"Data Type": "Regional", "Country": "Thailand", "City": "Samut Prakan", "Current Cases": "110", "Total Cases": "114", "Deceased": "4", "Recovered": "0", "Total Cases/1M pop": "0", "Deaths/1M pop": "0", "Total Tests": "0", "Last Updated": "2020-05-04 16:50:27"}}, {"type": "Feature", "geometry": {"type": "Point", "coordinates": [100.258587, 13.570819]}, "properties": {"Data Type": "Regional", "Country": "Thailand", "City": "Samut Sakhon", "Current Cases": "14", "Total Cases": "14", "Deceased": "0", "Recovered": "0", "Total Cases/1M pop": "0", "Deaths/1M pop": "0", "Total Tests": "0", "Last Updated": "2020-05-04 16:50:27"}}, {"type": "Feature", "geometry": {"type": "Point", "coordinates": [100.317038, 14.649522]}, "properties": {"Data Type": "Regional", "Country": "Thailand", "City": "Ang Thong", "Current Cases": "0", "Total Cases": "0", "Deceased": "0", "Recovered": "0", "Total Cases/1M pop": "0", "Deaths/1M pop": "0", "Total Tests": "0", "Last Updated": "2020-05-04 16:50:27"}}, {"type": "Feature", "geometry": {"type": "Point", "coordinates": [100.127874, 15.18462]}, "properties": {"Data Type": "Regional", "Country": "Thailand", "City": "Chai Nat", "Current Cases": "0", "Total Cases": "0", "Deceased": "0", "Recovered": "0", "Total Cases/1M pop": "0", "Deaths/1M pop": "0", "Total Tests": "0", "Last Updated": "2020-05-04 16:50:27"}}, {"type": "Feature", "geometry": {"type": "Point", "coordinates": [99.611162, 16.418358]}, "properties": {"Data Type": "Regional", "Country": "Thailand", "City": "Kamphaeng Phet", "Current Cases": "0", "Total Cases": "0", "Deceased": "0", "Recovered": "0", "Total Cases/1M pop": "0", "Deaths/1M pop": "0", "Total Tests": "0", "Last Updated": "2020-05-04 16:50:27"}}, {"type": "Feature", "geometry": {"type": "Point", "coordinates": [100.808918, 15.026458]}, "properties": {"Data Type": "Regional", "Country": "Thailand", "City": "Lopburi", "Current Cases": "2", "Total Cases": "2", "Deceased": "0", "Recovered": "0", "Total Cases/1M pop": "0", "Deaths/1M pop": "0", "Total Tests": "0", "Last Updated": "2020-05-04 16:50:27"}}, {"type": "Feature", "geometry": {"type": "Point", "coordinates": [101.217746, 14.149447]}, "properties": {"Data Type": "Regional", "Country": "Thailand", "City": "Nakhon Nayok", "Current Cases": "2", "Total Cases": "2", "Deceased": "0", "Recovered": "0", "Total Cases/1M pop": "0", "Deaths/1M pop": "0", "Total Tests": "0", "Last Updated": "2020-05-04 16:50:27"}}, {"type": "Feature", "geometry": {"type": "Point", "coordinates": [99.928848, 15.705477]}, "properties": {"Data Type": "Regional", "Country": "Thailand", "City": "Nakhon Sawan", "Current Cases": "9", "Total Cases": "9", "Deceased": "0", "Recovered": "0", "Total Cases/1M pop": "0", "Deaths/1M pop": "0", "Total Tests": "0", "Last Updated": "2020-05-04 16:50:27"}}, {"type": "Feature", "geometry": {"type": "Point", "coordinates": [100.955275, 16.329317]}, "properties": {"Data Type": "Regional", "Country": "Thailand", "City": "Phetchabun", "Current Cases": "3", "Total Cases": "3", "Deceased": "0", "Recovered": "0", "Total Cases/1M pop": "0", "Deaths/1M pop": "0", "Total Tests": "0", "Last Updated": "2020-05-04 16:50:27"}}, {"type": "Feature", "geometry": {"type": "Point", "coordinates": [100.19247, 16.455107]}, "properties": {"Data Type": "Regional", "Country": "Thailand", "City": "Phichit", "Current Cases": "0", "Total Cases": "0", "Deceased": "0", "Recovered": "0", "Total Cases/1M pop": "0", "Deaths/1M pop": "0", "Total Tests": "0", "Last Updated": "2020-05-04 16:50:27"}}, {"type": "Feature", "geometry": {"type": "Point", "coordinates": [100.531129, 17.045861]}, "properties": {"Data Type": "Regional", "Country": "Thailand", "City": "Phitsanulok", "Current Cases": "6", "Total Cases": "6", "Deceased": "0", "Recovered": "0", "Total Cases/1M pop": "0", "Deaths/1M pop": "0", "Total Tests": "0", "Last Updated": "2020-05-04 16:50:27"}}, {"type": "Feature", "geometry": {"type": "Point", "coordinates": [100.564568, 14.353543]}, "properties": {"Data Type": "Regional", "Country": "Thailand", "City": "Phra Nakhon Si Ayutthaya", "Current Cases": "3", "Total Cases": "4", "Deceased": "1", "Recovered": "0", "Total Cases/1M pop": "0", "Deaths/1M pop": "0", "Total Tests": "0", "Last Updated": "2020-05-04 16:50:27"}}, {"type": "Feature", "geometry": {"type": "Point", "coordinates": [99.961968, 13.357686]}, "properties": {"Data Type": "Regional", "Country": "Thailand", "City": "Samut Songkhram", "Current Cases": "1", "Total Cases": "1", "Deceased": "0", "Recovered": "0", "Total Cases/1M pop": "0", "Deaths/1M pop": "0", "Total Tests": "0", "Last Updated": "2020-05-04 16:50:27"}}, {"type": "Feature", "geometry": {"type": "Point", "coordinates": [100.916076, 14.524947]}, "properties": {"Data Type": "Regional", "Country": "Thailand", "City": "Saraburi", "Current Cases": "5", "Total Cases": "5", "Deceased": "0", "Recovered": "0", "Total Cases/1M pop": "0", "Deaths/1M pop": "0", "Total Tests": "0", "Last Updated": "2020-05-04 16:50:27"}}, {"type": "Feature", "geometry": {"type": "Point", "coordinates": [100.360296, 14.993672]}, "properties": {"Data Type": "Regional", "Country": "Thailand", "City": "Sing Buri", "Current Cases": "0", "Total Cases": "0", "Deceased": "0", "Recovered": "0", "Total Cases/1M pop": "0", "Deaths/1M pop": "0", "Total Tests": "0", "Last Updated": "2020-05-04 16:50:27"}}, {"type": "Feature", "geometry": {"type": "Point", "coordinates": [100.116032, 14.468482]}, "properties": {"Data Type": "Regional", "Country": "Thailand", "City": "Suphan Buri", "Current Cases": "6", "Total Cases": "6", "Deceased": "0", "Recovered": "0", "Total Cases/1M pop": "0", "Deaths/1M pop": "0", "Total Tests": "0", "Last Updated": "2020-05-04 16:50:27"}}, {"type": "Feature", "geometry": {"type": "Point", "coordinates": [99.437584, 17.144699]}, "properties": {"Data Type": "Regional", "Country": "Thailand", "City": "Sukhothai", "Current Cases": "3", "Total Cases": "3", "Deceased": "0", "Recovered": "0", "Total Cases/1M pop": "0", "Deaths/1M pop": "0", "Total Tests": "0", "Last Updated": "2020-05-04 16:50:27"}}, {"type": "Feature", "geometry": {"type": "Point", "coordinates": [99.456053, 15.391208]}, "properties": {"Data Type": "Regional", "Country": "Thailand", "City": "Uthai Thani", "Current Cases": "1", "Total Cases": "1", "Deceased": "0", "Recovered": "0", "Total Cases/1M pop": "0", "Deaths/1M pop": "0", "Total Tests": "0", "Last Updated": "2020-05-04 16:50:27"}}, {"type": "Feature", "geometry": {"type": "Point", "coordinates": [101.121078, 13.185712]}, "properties": {"Data Type": "Regional", "Country": "Thailand", "City": "Chonburi", "Current Cases": "89", "Total Cases": "91", "Deceased": "2", "Recovered": "0", "Total Cases/1M pop": "0", "Deaths/1M pop": "0", "Total Tests": "0", "Last Updated": "2020-05-04 16:50:27"}}, {"type": "Feature", "geometry": {"type": "Point", "coordinates": [101.54672, 13.609319]}, "properties": {"Data Type": "Regional", "Country": "Thailand", "City": "Chachoengsao", "Current Cases": "16", "Total Cases": "17", "Deceased": "1", "Recovered": "0", "Total Cases/1M pop": "0", "Deaths/1M pop": "0", "Total Tests": "0", "Last Updated": "2020-05-04 16:50:27"}}, {"type": "Feature", "geometry": {"type": "Point", "coordinates": [102.315292, 12.826436]}, "properties": {"Data Type": "Regional", "Country": "Thailand", "City": "Chanthaburi", "Current Cases": "3", "Total Cases": "3", "Deceased": "0", "Recovered": "0", "Total Cases/1M pop": "0", "Deaths/1M pop": "0", "Total Tests": "0", "Last Updated": "2020-05-04 16:50:27"}}, {"type": "Feature", "geometry": {"type": "Point", "coordinates": [101.554782, 14.154205]}, "properties": {"Data Type": "Regional", "Country": "Thailand", "City": "Prachinburi", "Current Cases": "7", "Total Cases": "8", "Deceased": "1", "Recovered": "0", "Total Cases/1M pop": "0", "Deaths/1M pop": "0", "Total Tests": "0", "Last Updated": "2020-05-04 16:50:27"}}, {"type": "Feature", "geometry": {"type": "Point", "coordinates": [101.370534, 12.794372]}, "properties": {"Data Type": "Regional", "Country": "Thailand", "City": "Rayong", "Current Cases": "6", "Total Cases": "6", "Deceased": "0", "Recovered": "0", "Total Cases/1M pop": "0", "Deaths/1M pop": "0", "Total Tests": "0", "Last Updated": "2020-05-04 16:50:27"}}, {"type": "Feature", "geometry": {"type": "Point", "coordinates": [102.134535, 13.768613]}, "properties": {"Data Type": "Regional", "Country": "Thailand", "City": "Sa Kaeo", "Current Cases": "10", "Total Cases": "10", "Deceased": "0", "Recovered": "0", "Total Cases/1M pop": "0", "Deaths/1M pop": "0", "Total Tests": "0", "Last Updated": "2020-05-04 16:50:27"}}, {"type": "Feature", "geometry": {"type": "Point", "coordinates": [102.426887, 12.259354]}, "properties": {"Data Type": "Regional", "Country": "Thailand", "City": "Trat", "Current Cases": "0", "Total Cases": "0", "Deceased": "0", "Recovered": "0", "Total Cases/1M pop": "0", "Deaths/1M pop": "0", "Total Tests": "0", "Last Updated": "2020-05-04 16:50:27"}}, {"type": "Feature", "geometry": {"type": "Point", "coordinates": [104.732857, 15.994947]}, "properties": {"Data Type": "Regional", "Country": "Thailand", "City": "Amnat Charoen", "Current Cases": "2", "Total Cases": "2", "Deceased": "0", "Recovered": "0", "Total Cases/1M pop": "0", "Deaths/1M pop": "0", "Total Tests": "0", "Last Updated": "2020-05-04 16:50:27"}}, {"type": "Feature", "geometry": {"type": "Point", "coordinates": [103.650515, 18.366023]}, "properties": {"Data Type": "Regional", "Country": "Thailand", "City": "Bueng Kan", "Current Cases": "0", "Total Cases": "0", "Deceased": "0", "Recovered": "0", "Total Cases/1M pop": "0", "Deaths/1M pop": "0", "Total Tests": "0", "Last Updated": "2020-05-04 16:50:27"}}, {"type": "Feature", "geometry": {"type": "Point", "coordinates": [103.107698, 14.995152]}, "properties": {"Data Type": "Regional", "Country": "Thailand", "City": "Buriram", "Current Cases": "12", "Total Cases": "13", "Deceased": "1", "Recovered": "0", "Total Cases/1M pop": "0", "Deaths/1M pop": "0", "Total Tests": "0", "Last Updated": "2020-05-04 16:50:27"}}, {"type": "Feature", "geometry": {"type": "Point", "coordinates": [101.715382, 16.272035]}, "properties": {"Data Type": "Regional", "Country": "Thailand", "City": "Chaiyaphum", "Current Cases": "3", "Total Cases": "3", "Deceased": "0", "Recovered": "0", "Total Cases/1M pop": "0", "Deaths/1M pop": "0", "Total Tests": "0", "Last Updated": "2020-05-04 16:50:27"}}, {"type": "Feature", "geometry": {"type": "Point", "coordinates": [103.652547, 16.59126]}, "properties": {"Data Type": "Regional", "Country": "Thailand", "City": "Kalasin", "Current Cases": "3", "Total Cases": "3", "Deceased": "0", "Recovered": "0", "Total Cases/1M pop": "0", "Deaths/1M pop": "0", "Total Tests": "0", "Last Updated": "2020-05-04 16:50:27"}}, {"type": "Feature", "geometry": {"type": "Point", "coordinates": [102.635293, 16.602239]}, "properties": {"Data Type": "Regional", "Country": "Thailand", "City": "Khon Kaen", "Current Cases": "6", "Total Cases": "6", "Deceased": "0", "Recovered": "0", "Total Cases/1M pop": "0", "Deaths/1M pop": "0", "Total Tests": "0", "Last Updated": "2020-05-04 16:50:27"}}, {"type": "Feature", "geometry": {"type": "Point", "coordinates": [101.463828, 17.315856]}, "properties": {"Data Type": "Regional", "Country": "Thailand", "City": "Loei", "Current Cases": "5", "Total Cases": "5", "Deceased": "0", "Recovered": "0", "Total Cases/1M pop": "0", "Deaths/1M pop": "0", "Total Tests": "0", "Last Updated": "2020-05-04 16:50:27"}}, {"type": "Feature", "geometry": {"type": "Point", "coordinates": [103.084064, 15.904145]}, "properties": {"Data Type": "Regional", "Country": "Thailand", "City": "Maha Sarakham", "Current Cases": "0", "Total Cases": "1", "Deceased": "1", "Recovered": "0", "Total Cases/1M pop": "0", "Deaths/1M pop": "0", "Total Tests": "0", "Last Updated": "2020-05-04 16:50:27"}}, {"type": "Feature", "geometry": {"type": "Point", "coordinates": [104.347029, 16.697239]}, "properties": {"Data Type": "Regional", "Country": "Thailand", "City": "Mukdahan", "Current Cases": "4", "Total Cases": "4", "Deceased": "0", "Recovered": "0", "Total Cases/1M pop": "0", "Deaths/1M pop": "0", "Total Tests": "0", "Last Updated": "2020-05-04 16:50:27"}}, {"type": "Feature", "geometry": {"type": "Point", "coordinates": [104.608946, 17.199099]}, "properties": {"Data Type": "Regional", "Country": "Thailand", "City": "Nakhon Phanom", "Current Cases": "2", "Total Cases": "2", "Deceased": "0", "Recovered": "0", "Total Cases/1M pop": "0", "Deaths/1M pop": "0", "Total Tests": "0", "Last Updated": "2020-05-04 16:50:27"}}, {"type": "Feature", "geometry": {"type": "Point", "coordinates": [101.931375, 15.224192]}, "properties": {"Data Type": "Regional", "Country": "Thailand", "City": "Nakhon Ratchasima", "Current Cases": "19", "Total Cases": "19", "Deceased": "0", "Recovered": "0", "Total Cases/1M pop": "0", "Deaths/1M pop": "0", "Total Tests": "0", "Last Updated": "2020-05-04 16:50:27"}}, {"type": "Feature", "geometry": {"type": "Point", "coordinates": [102.207457, 17.352101]}, "properties": {"Data Type": "Regional", "Country": "Thailand", "City": "Nong Bua Lamphu", "Current Cases": "4", "Total Cases": "4", "Deceased": "0", "Recovered": "0", "Total Cases/1M pop": "0", "Deaths/1M pop": "0", "Total Tests": "0", "Last Updated": "2020-05-04 16:50:27"}}, {"type": "Feature", "geometry": {"type": "Point", "coordinates": [102.464981, 17.930142]}, "properties": {"Data Type": "Regional", "Country": "Thailand", "City": "Nong Khai", "Current Cases": "3", "Total Cases": "3", "Deceased": "0", "Recovered": "0", "Total Cases/1M pop": "0", "Deaths/1M pop": "0", "Total Tests": "0", "Last Updated": "2020-05-04 16:50:27"}}, {"type": "Feature", "geometry": {"type": "Point", "coordinates": [103.701302, 15.748645]}, "properties": {"Data Type": "Regional", "Country": "Thailand", "City": "Roi Et", "Current Cases": "3", "Total Cases": "3", "Deceased": "0", "Recovered": "0", "Total Cases/1M pop": "0", "Deaths/1M pop": "0", "Total Tests": "0", "Last Updated": "2020-05-04 16:50:27"}}, {"type": "Feature", "geometry": {"type": "Point", "coordinates": [103.97309, 17.190445]}, "properties": {"Data Type": "Regional", "Country": "Thailand", "City": "Sakon Nakhon", "Current Cases": "1", "Total Cases": "1", "Deceased": "0", "Recovered": "0", "Total Cases/1M pop": "0", "Deaths/1M pop": "0", "Total Tests": "0", "Last Updated": "2020-05-04 16:50:27"}}, {"type": "Feature", "geometry": {"type": "Point", "coordinates": [104.44396, 14.9222]}, "properties": {"Data Type": "Regional", "Country": "Thailand", "City": "Sisaket", "Current Cases": "8", "Total Cases": "8", "Deceased": "0", "Recovered": "0", "Total Cases/1M pop": "0", "Deaths/1M pop": "0", "Total Tests": "0", "Last Updated": "2020-05-04 16:50:27"}}, {"type": "Feature", "geometry": {"type": "Point", "coordinates": [103.493048, 14.884901]}, "properties": {"Data Type": "Regional", "Country": "Thailand", "City": "Surin", "Current Cases": "8", "Total Cases": "9", "Deceased": "1", "Recovered": "0", "Total Cases/1M pop": "0", "Deaths/1M pop": "0", "Total Tests": "0", "Last Updated": "2020-05-04 16:50:27"}}, {"type": "Feature", "geometry": {"type": "Point", "coordinates": [105.326954, 15.187968]}, "properties": {"Data Type": "Regional", "Country": "Thailand", "City": "Ubon Ratchathani", "Current Cases": "15", "Total Cases": "15", "Deceased": "0", "Recovered": "0", "Total Cases/1M pop": "0", "Deaths/1M pop": "0", "Total Tests": "0", "Last Updated": "2020-05-04 16:50:27"}}, {"type": "Feature", "geometry": {"type": "Point", "coordinates": [102.668001, 17.521192]}, "properties": {"Data Type": "Regional", "Country": "Thailand", "City": "Udon Thani", "Current Cases": "9", "Total Cases": "9", "Deceased": "0", "Recovered": "0", "Total Cases/1M pop": "0", "Deaths/1M pop": "0", "Total Tests": "0", "Last Updated": "2020-05-04 16:50:27"}}, {"type": "Feature", "geometry": {"type": "Point", "coordinates": [104.274848, 16.028219]}, "properties": {"Data Type": "Regional", "Country": "Thailand", "City": "Yasothon", "Current Cases": "1", "Total Cases": "1", "Deceased": "0", "Recovered": "0", "Total Cases/1M pop": "0", "Deaths/1M pop": "0", "Total Tests": "0", "Last Updated": "2020-05-04 16:50:27"}}, {"type": "Feature", "geometry": {"type": "Point", "coordinates": [98.988048, 18.790876]}, "properties": {"Data Type": "Regional", "Country": "Thailand", "City": "Chiang Mai", "Current Cases": "39", "Total Cases": "40", "Deceased": "1", "Recovered": "0", "Total Cases/1M pop": "0", "Deaths/1M pop": "0", "Total Tests": "0", "Last Updated": "2020-05-04 16:50:27"}}, {"type": "Feature", "geometry": {"type": "Point", "coordinates": [99.884744, 19.732084]}, "properties": {"Data Type": "Regional", "Country": "Thailand", "City": "Chiang Rai", "Current Cases": "9", "Total Cases": "9", "Deceased": "0", "Recovered": "0", "Total Cases/1M pop": "0", "Deaths/1M pop": "0", "Total Tests": "0", "Last Updated": "2020-05-04 16:50:27"}}, {"type": "Feature", "geometry": {"type": "Point", "coordinates": [99.73325, 18.679973]}, "properties": {"Data Type": "Regional", "Country": "Thailand", "City": "Lampang", "Current Cases": "4", "Total Cases": "4", "Deceased": "0", "Recovered": "0", "Total Cases/1M pop": "0", "Deaths/1M pop": "0", "Total Tests": "0", "Last Updated": "2020-05-04 16:50:27"}}, {"type": "Feature", "geometry": {"type": "Point", "coordinates": [98.96749, 18.266142]}, "properties": {"Data Type": "Regional", "Country": "Thailand", "City": "Lamphun", "Current Cases": "4", "Total Cases": "4", "Deceased": "0", "Recovered": "0", "Total Cases/1M pop": "0", "Deaths/1M pop": "0", "Total Tests": "0", "Last Updated": "2020-05-04 16:50:27"}}, {"type": "Feature", "geometry": {"type": "Point", "coordinates": [98.203111, 19.392746]}, "properties": {"Data Type": "Regional", "Country": "Thailand", "City": "Mae Hong Son", "Current Cases": "5", "Total Cases": "5", "Deceased": "0", "Recovered": "0", "Total Cases/1M pop": "0", "Deaths/1M pop": "0", "Total Tests": "0", "Last Updated": "2020-05-04 16:50:27"}}, {"type": "Feature", "geometry": {"type": "Point", "coordinates": [100.624804, 18.754459]}, "properties": {"Data Type": "Regional", "Country": "Thailand", "City": "Nan", "Current Cases": "0", "Total Cases": "0", "Deceased": "0", "Recovered": "0", "Total Cases/1M pop": "0", "Deaths/1M pop": "0", "Total Tests": "0", "Last Updated": "2020-05-04 16:50:27"}}, {"type": "Feature", "geometry": {"type": "Point", "coordinates": [100.185454, 19.341673]}, "properties": {"Data Type": "Regional", "Country": "Thailand", "City": "Phayao", "Current Cases": "2", "Total Cases": "3", "Deceased": "1", "Recovered": "0", "Total Cases/1M pop": "0", "Deaths/1M pop": "0", "Total Tests": "0", "Last Updated": "2020-05-04 16:50:27"}}, {"type": "Feature", "geometry": {"type": "Point", "coordinates": [100.088676, 18.29306]}, "properties": {"Data Type": "Regional", "Country": "Thailand", "City": "Phrae", "Current Cases": "1", "Total Cases": "1", "Deceased": "0", "Recovered": "0", "Total Cases/1M pop": "0", "Deaths/1M pop": "0", "Total Tests": "0", "Last Updated": "2020-05-04 16:50:27"}}, {"type": "Feature", "geometry": {"type": "Point", "coordinates": [100.402945, 17.625163]}, "properties": {"Data Type": "Regional", "Country": "Thailand", "City": "Uttaradit", "Current Cases": "3", "Total Cases": "3", "Deceased": "0", "Recovered": "0", "Total Cases/1M pop": "0", "Deaths/1M pop": "0", "Total Tests": "0", "Last Updated": "2020-05-04 16:50:27"}}, {"type": "Feature", "geometry": {"type": "Point", "coordinates": [99.007768, 10.378272]}, "properties": {"Data Type": "Regional", "Country": "Thailand", "City": "Chumphon", "Current Cases": "19", "Total Cases": "21", "Deceased": "2", "Recovered": "0", "Total Cases/1M pop": "0", "Deaths/1M pop": "0", "Total Tests": "0", "Last Updated": "2020-05-04 16:50:27"}}, {"type": "Feature", "geometry": {"type": "Point", "coordinates": [99.10973, 8.111165]}, "properties": {"Data Type": "Regional", "Country": "Thailand", "City": "Krabi", "Current Cases": "20", "Total Cases": "20", "Deceased": "0", "Recovered": "0", "Total Cases/1M pop": "0", "Deaths/1M pop": "0", "Total Tests": "0", "Last Updated": "2020-05-04 16:50:27"}}, {"type": "Feature", "geometry": {"type": "Point", "coordinates": [99.730964, 8.677234]}, "properties": {"Data Type": "Regional", "Country": "Thailand", "City": "Nakhon Si Thammarat", "Current Cases": "11", "Total Cases": "12", "Deceased": "1", "Recovered": "0", "Total Cases/1M pop": "0", "Deaths/1M pop": "0", "Total Tests": "0", "Last Updated": "2020-05-04 16:50:27"}}, {"type": "Feature", "geometry": {"type": "Point", "coordinates": [101.597297, 6.321076]}, "properties": {"Data Type": "Regional", "Country": "Thailand", "City": "Narathiwat", "Current Cases": "32", "Total Cases": "33", "Deceased": "1", "Recovered": "0", "Total Cases/1M pop": "0", "Deaths/1M pop": "0", "Total Tests": "0", "Last Updated": "2020-05-04 16:50:27"}}, {"type": "Feature", "geometry": {"type": "Point", "coordinates": [101.250454, 6.867865]}, "properties": {"Data Type": "Regional", "Country": "Thailand", "City": "Pattani", "Current Cases": "90", "Total Cases": "91", "Deceased": "1", "Recovered": "0", "Total Cases/1M pop": "0", "Deaths/1M pop": "0", "Total Tests": "0", "Last Updated": "2020-05-04 16:50:27"}}, {"type": "Feature", "geometry": {"type": "Point", "coordinates": [98.568033, 8.50583]}, "properties": {"Data Type": "Regional", "Country": "Thailand", "City": "Phang Nga", "Current Cases": "2", "Total Cases": "2", "Deceased": "0", "Recovered": "0", "Total Cases/1M pop": "0", "Deaths/1M pop": "0", "Total Tests": "0", "Last Updated": "2020-05-04 16:50:27"}}, {"type": "Feature", "geometry": {"type": "Point", "coordinates": [99.997158, 7.543525]}, "properties": {"Data Type": "Regional", "Country": "Thailand", "City": "Phatthalung", "Current Cases": "14", "Total Cases": "14", "Deceased": "0", "Recovered": "0", "Total Cases/1M pop": "0", "Deaths/1M pop": "0", "Total Tests": "0", "Last Updated": "2020-05-04 16:50:27"}}, {"type": "Feature", "geometry": {"type": "Point", "coordinates": [98.352929, 7.936602]}, "properties": {"Data Type": "Regional", "Country": "Thailand", "City": "Phuket", "Current Cases": "218", "Total Cases": "220", "Deceased": "2", "Recovered": "0", "Total Cases/1M pop": "0", "Deaths/1M pop": "0", "Total Tests": "0", "Last Updated": "2020-05-04 16:50:27"}}, {"type": "Feature", "geometry": {"type": "Point", "coordinates": [98.687013, 10.046955]}, "properties": {"Data Type": "Regional", "Country": "Thailand", "City": "Ranong", "Current Cases": "0", "Total Cases": "0", "Deceased": "0", "Recovered": "0", "Total Cases/1M pop": "0", "Deaths/1M pop": "0", "Total Tests": "0", "Last Updated": "2020-05-04 16:50:27"}}, {"type": "Feature", "geometry": {"type": "Point", "coordinates": [99.96154, 7.036668]}, "properties": {"Data Type": "Regional", "Country": "Thailand", "City": "Satun", "Current Cases": "18", "Total Cases": "18", "Deceased": "0", "Recovered": "0", "Total Cases/1M pop": "0", "Deaths/1M pop": "0", "Total Tests": "0", "Last Updated": "2020-05-04 16:50:27"}}, {"type": "Feature", "geometry": {"type": "Point", "coordinates": [100.549854, 6.879022]}, "properties": {"Data Type": "Regional", "Country": "Thailand", "City": "Songkhla", "Current Cases": "105", "Total Cases": "105", "Deceased": "0", "Recovered": "0", "Total Cases/1M pop": "0", "Deaths/1M pop": "0", "Total Tests": "0", "Last Updated": "2020-05-04 16:50:27"}}, {"type": "Feature", "geometry": {"type": "Point", "coordinates": [98.830042, 9.467466]}, "properties": {"Data Type": "Regional", "Country": "Thailand", "City": "Surat Thani", "Current Cases": "18", "Total Cases": "18", "Deceased": "0", "Recovered": "0", "Total Cases/1M pop": "0", "Deaths/1M pop": "0", "Total Tests": "0", "Last Updated": "2020-05-04 16:50:27"}}, {"type": "Feature", "geometry": {"type": "Point", "coordinates": [99.5032, 7.589294]}, "properties": {"Data Type": "Regional", "Country": "Thailand", "City": "Trang", "Current Cases": "7", "Total Cases": "7", "Deceased": "0", "Recovered": "0", "Total Cases/1M pop": "0", "Deaths/1M pop": "0", "Total Tests": "0", "Last Updated": "2020-05-04 16:50:27"}}, {"type": "Feature", "geometry": {"type": "Point", "coordinates": [101.140969, 6.334485]}, "properties": {"Data Type": "Regional", "Country": "Thailand", "City": "Yala", "Current Cases": "124", "Total Cases": "126", "Deceased": "2", "Recovered": "0", "Total Cases/1M pop": "0", "Deaths/1M pop": "0", "Total Tests": "0", "Last Updated": "2020-05-04 16:50:27"}}, {"type": "Feature", "geometry": {"type": "Point", "coordinates": [99.267673, 14.44019]}, "properties": {"Data Type": "Regional", "Country": "Thailand", "City": "Kanchanaburi", "Current Cases": "9", "Total Cases": "9", "Deceased": "0", "Recovered": "0", "Total Cases/1M pop": "0", "Deaths/1M pop": "0", "Total Tests": "0", "Last Updated": "2020-05-04 16:50:27"}}, {"type": "Feature", "geometry": {"type": "Point", "coordinates": [99.604438, 13.069287]}, "properties": {"Data Type": "Regional", "Country": "Thailand", "City": "Phetchaburi", "Current Cases": "2", "Total Cases": "2", "Deceased": "0", "Recovered": "0", "Total Cases/1M pop": "0", "Deaths/1M pop": "0", "Total Tests": "0", "Last Updated": "2020-05-04 16:50:27"}}, {"type": "Feature", "geometry": {"type": "Point", "coordinates": [99.748723, 12.043267]}, "properties": {"Data Type": "Regional", "Country": "Thailand", "City": "Prachuap Khiri Khan", "Current Cases": "15", "Total Cases": "17", "Deceased": "2", "Recovered": "0", "Total Cases/1M pop": "0", "Deaths/1M pop": "0", "Total Tests": "0", "Last Updated": "2020-05-04 16:50:27"}}, {"type": "Feature", "geometry": {"type": "Point", "coordinates": [99.355822, 13.63179]}, "properties": {"Data Type": "Regional", "Country": "Thailand", "City": "Ratchaburi", "Current Cases": "7", "Total Cases": "7", "Deceased": "0", "Recovered": "0", "Total Cases/1M pop": "0", "Deaths/1M pop": "0", "Total Tests": "0", "Last Updated": "2020-05-04 16:50:27"}}, {"type": "Feature", "geometry": {"type": "Point", "coordinates": [98.995394, 17.105357]}, "properties": {"Data Type": "Regional", "Country": "Thailand", "City": "Tak", "Current Cases": "3", "Total Cases": "3", "Deceased": "0", "Recovered": "0", "Total Cases/1M pop": "0", "Deaths/1M pop": "0", "Total Tests": "0", "Last Updated": "2020-05-04 16:50:27"}}, {"type": "Feature", "geometry": {"type": "Point", "coordinates": [96.106669, 16.887988]}, "properties": {"Data Type": "Regional", "Country": "Myanmar", "City": "Insein, North Yangon", "Current Cases": "29", "Total Cases": "29", "Deceased": "0", "Recovered": "0", "Total Cases/1M pop": "0", "Deaths/1M pop": "0", "Total Tests": "0", "Last Updated": "2020-05-04 16:50:27"}}, {"type": "Feature", "geometry": {"type": "Point", "coordinates": [96.11711, 16.866088]}, "properties": {"Data Type": "Regional", "Country": "Myanmar", "City": "Mayangone, North Yangon", "Current Cases": "8", "Total Cases": "9", "Deceased": "1", "Recovered": "0", "Total Cases/1M pop": "0", "Deaths/1M pop": "0", "Total Tests": "0", "Last Updated": "2020-05-04 16:50:27"}}, {"type": "Feature", "geometry": {"type": "Point", "coordinates": [96.079511, 16.953272]}, "properties": {"Data Type": "Regional", "Country": "Myanmar", "City": "Shwepyithar, North Yangon", "Current Cases": "3", "Total Cases": "3", "Deceased": "0", "Recovered": "0", "Total Cases/1M pop": "0", "Deaths/1M pop": "0", "Total Tests": "0", "Last Updated": "2020-05-04 16:50:27"}}, {"type": "Feature", "geometry": {"type": "Point", "coordinates": [96.077603, 16.878237]}, "properties": {"Data Type": "Regional", "Country": "Myanmar", "City": "Hlaingthayar, North Yangon", "Current Cases": "5", "Total Cases": "5", "Deceased": "0", "Recovered": "0", "Total Cases/1M pop": "0", "Deaths/1M pop": "0", "Total Tests": "0", "Last Updated": "2020-05-04 16:50:27"}}, {"type": "Feature", "geometry": {"type": "Point", "coordinates": [96.155443, 16.92529]}, "properties": {"Data Type": "Regional", "Country": "Myanmar", "City": "Mingalardon, North Yangon", "Current Cases": "3", "Total Cases": "3", "Deceased": "0", "Recovered": "0", "Total Cases/1M pop": "0", "Deaths/1M pop": "0", "Total Tests": "0", "Last Updated": "2020-05-04 16:50:27"}}, {"type": "Feature", "geometry": {"type": "Point", "coordinates": [96.223362, 17.098837]}, "properties": {"Data Type": "Regional", "Country": "Myanmar", "City": "Hlegu, North Yangon", "Current Cases": "1", "Total Cases": "1", "Deceased": "0", "Recovered": "0", "Total Cases/1M pop": "0", "Deaths/1M pop": "0", "Total Tests": "0", "Last Updated": "2020-05-04 16:50:27"}}, {"type": "Feature", "geometry": {"type": "Point", "coordinates": [96.151258, 16.80614]}, "properties": {"Data Type": "Regional", "Country": "Myanmar", "City": "Bahan, West Yangon", "Current Cases": "12", "Total Cases": "12", "Deceased": "0", "Recovered": "0", "Total Cases/1M pop": "0", "Deaths/1M pop": "0", "Total Tests": "0", "Last Updated": "2020-05-04 16:50:27"}}, {"type": "Feature", "geometry": {"type": "Point", "coordinates": [96.156149, 16.775958]}, "properties": {"Data Type": "Regional", "Country": "Myanmar", "City": "Pabedan, West Yangon", "Current Cases": "6", "Total Cases": "7", "Deceased": "1", "Recovered": "0", "Total Cases/1M pop": "0", "Deaths/1M pop": "0", "Total Tests": "0", "Last Updated": "2020-05-04 16:50:27"}}, {"type": "Feature", "geometry": {"type": "Point", "coordinates": [96.117823, 16.784413]}, "properties": {"Data Type": "Regional", "Country": "Myanmar", "City": "Ahlon, West Yangon", "Current Cases": "1", "Total Cases": "1", "Deceased": "0", "Recovered": "0", "Total Cases/1M pop": "0", "Deaths/1M pop": "0", "Total Tests": "0", "Last Updated": "2020-05-04 16:50:27"}}, {"type": "Feature", "geometry": {"type": "Point", "coordinates": [96.132138, 16.806166]}, "properties": {"Data Type": "Regional", "Country": "Myanmar", "City": "Sanchaung, West Yangon", "Current Cases": "2", "Total Cases": "2", "Deceased": "0", "Recovered": "0", "Total Cases/1M pop": "0", "Deaths/1M pop": "0", "Total Tests": "0", "Last Updated": "2020-05-04 16:50:27"}}, {"type": "Feature", "geometry": {"type": "Point", "coordinates": [96.141727, 16.778966]}, "properties": {"Data Type": "Regional", "Country": "Myanmar", "City": "Lanmadaw, West Yangon", "Current Cases": "1", "Total Cases": "1", "Deceased": "0", "Recovered": "0", "Total Cases/1M pop": "0", "Deaths/1M pop": "0", "Total Tests": "0", "Last Updated": "2020-05-04 16:50:27"}}, {"type": "Feature", "geometry": {"type": "Point", "coordinates": [96.123181, 16.819564]}, "properties": {"Data Type": "Regional", "Country": "Myanmar", "City": "Kamayut, West Yangon", "Current Cases": "2", "Total Cases": "2", "Deceased": "0", "Recovered": "0", "Total Cases/1M pop": "0", "Deaths/1M pop": "0", "Total Tests": "0", "Last Updated": "2020-05-04 16:50:27"}}, {"type": "Feature", "geometry": {"type": "Point", "coordinates": [96.161984, 16.774106]}, "properties": {"Data Type": "Regional", "Country": "Myanmar", "City": "Kyauktada, West Yangon", "Current Cases": "2", "Total Cases": "2", "Deceased": "0", "Recovered": "0", "Total Cases/1M pop": "0", "Deaths/1M pop": "0", "Total Tests": "0", "Last Updated": "2020-05-04 16:50:27"}}, {"type": "Feature", "geometry": {"type": "Point", "coordinates": [96.123437, 16.843051]}, "properties": {"Data Type": "Regional", "Country": "Myanmar", "City": "Hlaing, West Yangon", "Current Cases": "3", "Total Cases": "3", "Deceased": "0", "Recovered": "0", "Total Cases/1M pop": "0", "Deaths/1M pop": "0", "Total Tests": "0", "Last Updated": "2020-05-04 16:50:27"}}, {"type": "Feature", "geometry": {"type": "Point", "coordinates": [96.144339, 16.792373]}, "properties": {"Data Type": "Regional", "Country": "Myanmar", "City": "Dagon, West Yangon", "Current Cases": "1", "Total Cases": "1", "Deceased": "0", "Recovered": "0", "Total Cases/1M pop": "0", "Deaths/1M pop": "0", "Total Tests": "0", "Last Updated": "2020-05-04 16:50:27"}}, {"type": "Feature", "geometry": {"type": "Point", "coordinates": [96.180165, 16.847012]}, "properties": {"Data Type": "Regional", "Country": "Myanmar", "City": "South Okkalapa, East Yangon", "Current Cases": "16", "Total Cases": "16", "Deceased": "0", "Recovered": "0", "Total Cases/1M pop": "0", "Deaths/1M pop": "0", "Total Tests": "0", "Last Updated": "2020-05-04 16:50:27"}}, {"type": "Feature", "geometry": {"type": "Point", "coordinates": [96.166925, 16.917002]}, "properties": {"Data Type": "Regional", "Country": "Myanmar", "City": "North Okkalapa, East Yangon", "Current Cases": "1", "Total Cases": "2", "Deceased": "1", "Recovered": "0", "Total Cases/1M pop": "0", "Deaths/1M pop": "0", "Total Tests": "0", "Last Updated": "2020-05-04 16:50:27"}}, {"type": "Feature", "geometry": {"type": "Point", "coordinates": [96.171841, 16.767831]}, "properties": {"Data Type": "Regional", "Country": "Myanmar", "City": "Botataung, East Yangon", "Current Cases": "3", "Total Cases": "4", "Deceased": "1", "Recovered": "0", "Total Cases/1M pop": "0", "Deaths/1M pop": "0", "Total Tests": "0", "Last Updated": "2020-05-04 16:50:27"}}, {"type": "Feature", "geometry": {"type": "Point", "coordinates": [96.211835, 16.90113]}, "properties": {"Data Type": "Regional", "Country": "Myanmar", "City": "East Dagon, East Yangon", "Current Cases": "3", "Total Cases": "3", "Deceased": "0", "Recovered": "0", "Total Cases/1M pop": "0", "Deaths/1M pop": "0", "Total Tests": "0", "Last Updated": "2020-05-04 16:50:27"}}, {"type": "Feature", "geometry": {"type": "Point", "coordinates": [96.175505, 16.777971]}, "properties": {"Data Type": "Regional", "Country": "Myanmar", "City": "Pazundaung, East Yangon", "Current Cases": "1", "Total Cases": "1", "Deceased": "0", "Recovered": "0", "Total Cases/1M pop": "0", "Deaths/1M pop": "0", "Total Tests": "0", "Last Updated": "2020-05-04 16:50:27"}}, {"type": "Feature", "geometry": {"type": "Point", "coordinates": [96.176927, 16.806299]}, "properties": {"Data Type": "Regional", "Country": "Myanmar", "City": "Tamwe, East Yangon", "Current Cases": "5", "Total Cases": "5", "Deceased": "0", "Recovered": "0", "Total Cases/1M pop": "0", "Deaths/1M pop": "0", "Total Tests": "0", "Last Updated": "2020-05-04 16:50:27"}}, {"type": "Feature", "geometry": {"type": "Point", "coordinates": [96.187776, 16.782625]}, "properties": {"Data Type": "Regional", "Country": "Myanmar", "City": "Dawbon, East Yangon", "Current Cases": "2", "Total Cases": "2", "Deceased": "0", "Recovered": "0", "Total Cases/1M pop": "0", "Deaths/1M pop": "0", "Total Tests": "0", "Last Updated": "2020-05-04 16:50:27"}}, {"type": "Feature", "geometry": {"type": "Point", "coordinates": [96.192158, 16.871939]}, "properties": {"Data Type": "Regional", "Country": "Myanmar", "City": "North Dagon, East Yangon", "Current Cases": "2", "Total Cases": "2", "Deceased": "0", "Recovered": "0", "Total Cases/1M pop": "0", "Deaths/1M pop": "0", "Total Tests": "0", "Last Updated": "2020-05-04 16:50:27"}}, {"type": "Feature", "geometry": {"type": "Point", "coordinates": [96.197317, 16.831965]}, "properties": {"Data Type": "Regional", "Country": "Myanmar", "City": "Thingangyun, East Yangon", "Current Cases": "1", "Total Cases": "1", "Deceased": "0", "Recovered": "0", "Total Cases/1M pop": "0", "Deaths/1M pop": "0", "Total Tests": "0", "Last Updated": "2020-05-04 16:50:27"}}, {"type": "Feature", "geometry": {"type": "Point", "coordinates": [96.2072, 16.79804]}, "properties": {"Data Type": "Regional", "Country": "Myanmar", "City": "Thaketa, East Yangon", "Current Cases": "2", "Total Cases": "2", "Deceased": "0", "Recovered": "0", "Total Cases/1M pop": "0", "Deaths/1M pop": "0", "Total Tests": "0", "Last Updated": "2020-05-04 16:50:27"}}, {"type": "Feature", "geometry": {"type": "Point", "coordinates": [96.172849, 16.788853]}, "properties": {"Data Type": "Regional", "Country": "Myanmar", "City": "Mingala Taungnyunt, South Yangon", "Current Cases": "1", "Total Cases": "2", "Deceased": "1", "Recovered": "0", "Total Cases/1M pop": "0", "Deaths/1M pop": "0", "Total Tests": "0", "Last Updated": "2020-05-04 16:50:27"}}, {"type": "Feature", "geometry": {"type": "Point", "coordinates": [96.095838, 21.939404]}, "properties": {"Data Type": "Regional", "Country": "Myanmar", "City": "Chanmyathazi, Mandalay", "Current Cases": "1", "Total Cases": "1", "Deceased": "0", "Recovered": "0", "Total Cases/1M pop": "0", "Deaths/1M pop": "0", "Total Tests": "0", "Last Updated": "2020-05-04 16:50:27"}}, {"type": "Feature", "geometry": {"type": "Point", "coordinates": [96.098469, 22.004524]}, "properties": {"Data Type": "Regional", "Country": "Myanmar", "City": "Aungmyethazan, Mandalay", "Current Cases": "1", "Total Cases": "1", "Deceased": "0", "Recovered": "0", "Total Cases/1M pop": "0", "Deaths/1M pop": "0", "Total Tests": "0", "Last Updated": "2020-05-04 16:50:27"}}, {"type": "Feature", "geometry": {"type": "Point", "coordinates": [96.106392, 22.21036]}, "properties": {"Data Type": "Regional", "Country": "Myanmar", "City": "Madaya, Pyin Oo Lwin", "Current Cases": "1", "Total Cases": "1", "Deceased": "0", "Recovered": "0", "Total Cases/1M pop": "0", "Deaths/1M pop": "0", "Total Tests": "0", "Last Updated": "2020-05-04 16:50:27"}}, {"type": "Feature", "geometry": {"type": "Point", "coordinates": [96.061, 19.764]}, "properties": {"Data Type": "Regional", "Country": "Myanmar", "City": "Zabuthiri, Dekkhina", "Current Cases": "1", "Total Cases": "1", "Deceased": "0", "Recovered": "0", "Total Cases/1M pop": "0", "Deaths/1M pop": "0", "Total Tests": "0", "Last Updated": "2020-05-04 16:50:27"}}, {"type": "Feature", "geometry": {"type": "Point", "coordinates": [93.655654, 23.371735]}, "properties": {"Data Type": "Regional", "Country": "Myanmar", "City": "Tedim, Falam", "Current Cases": "5", "Total Cases": "5", "Deceased": "0", "Recovered": "0", "Total Cases/1M pop": "0", "Deaths/1M pop": "0", "Total Tests": "0", "Last Updated": "2020-05-04 16:50:27"}}, {"type": "Feature", "geometry": {"type": "Point", "coordinates": [93.609622, 22.642755]}, "properties": {"Data Type": "Regional", "Country": "Myanmar", "City": "Hakha", "Current Cases": "1", "Total Cases": "1", "Deceased": "0", "Recovered": "0", "Total Cases/1M pop": "0", "Deaths/1M pop": "0", "Total Tests": "0", "Last Updated": "2020-05-04 16:50:27"}}, {"type": "Feature", "geometry": {"type": "Point", "coordinates": [95.532517, 18.909209]}, "properties": {"Data Type": "Regional", "Country": "Myanmar", "City": "Paukkhaung, Pyay", "Current Cases": "3", "Total Cases": "4", "Deceased": "1", "Recovered": "0", "Total Cases/1M pop": "0", "Deaths/1M pop": "0", "Total Tests": "0", "Last Updated": "2020-05-04 16:50:27"}}, {"type": "Feature", "geometry": {"type": "Point", "coordinates": [95.216667, 18.816667]}, "properties": {"Data Type": "Regional", "Country": "Myanmar", "City": "Pyay", "Current Cases": "3", "Total Cases": "3", "Deceased": "0", "Recovered": "0", "Total Cases/1M pop": "0", "Deaths/1M pop": "0", "Total Tests": "0", "Last Updated": "2020-05-04 16:50:27"}}, {"type": "Feature", "geometry": {"type": "Point", "coordinates": [96.804595, 22.599651]}, "properties": {"Data Type": "Regional", "Country": "Myanmar", "City": "Kyaukme", "Current Cases": "1", "Total Cases": "1", "Deceased": "0", "Recovered": "0", "Total Cases/1M pop": "0", "Deaths/1M pop": "0", "Total Tests": "0", "Last Updated": "2020-05-04 16:50:27"}}, {"type": "Feature", "geometry": {"type": "Point", "coordinates": [97.036429, 20.790787]}, "properties": {"Data Type": "Regional", "Country": "Myanmar", "City": "Taunggyi", "Current Cases": "2", "Total Cases": "2", "Deceased": "0", "Recovered": "0", "Total Cases/1M pop": "0", "Deaths/1M pop": "0", "Total Tests": "0", "Last Updated": "2020-05-04 16:50:27"}}, {"type": "Feature", "geometry": {"type": "Point", "coordinates": [99.104218, 21.191183]}, "properties": {"Data Type": "Regional", "Country": "Myanmar", "City": "Monghpayak", "Current Cases": "1", "Total Cases": "1", "Deceased": "0", "Recovered": "0", "Total Cases/1M pop": "0", "Deaths/1M pop": "0", "Total Tests": "0", "Last Updated": "2020-05-04 16:50:27"}}, {"type": "Feature", "geometry": {"type": "Point", "coordinates": [99.884214, 20.449079]}, "properties": {"Data Type": "Regional", "Country": "Myanmar", "City": "Tachileik", "Current Cases": "2", "Total Cases": "2", "Deceased": "0", "Recovered": "0", "Total Cases/1M pop": "0", "Deaths/1M pop": "0", "Total Tests": "0", "Last Updated": "2020-05-04 16:50:27"}}, {"type": "Feature", "geometry": {"type": "Point", "coordinates": [97.901272, 23.997807]}, "properties": {"Data Type": "Regional", "Country": "Myanmar", "City": "Muse", "Current Cases": "1", "Total Cases": "1", "Deceased": "0", "Recovered": "0", "Total Cases/1M pop": "0", "Deaths/1M pop": "0", "Total Tests": "0", "Last Updated": "2020-05-04 16:50:27"}}, {"type": "Feature", "geometry": {"type": "Point", "coordinates": [97.725056, 16.369119]}, "properties": {"Data Type": "Regional", "Country": "Myanmar", "City": "Kyaikmaraw, Mawlamyine", "Current Cases": "1", "Total Cases": "1", "Deceased": "0", "Recovered": "0", "Total Cases/1M pop": "0", "Deaths/1M pop": "0", "Total Tests": "0", "Last Updated": "2020-05-04 16:50:27"}}, {"type": "Feature", "geometry": {"type": "Point", "coordinates": [95.400534, 19.449403]}, "properties": {"Data Type": "Regional", "Country": "Myanmar", "City": "Myothit, Magway", "Current Cases": "1", "Total Cases": "1", "Deceased": "0", "Recovered": "0", "Total Cases/1M pop": "0", "Deaths/1M pop": "0", "Total Tests": "0", "Last Updated": "2020-05-04 16:50:27"}}, {"type": "Feature", "geometry": {"type": "Point", "coordinates": [94.015888, 23.195728]}, "properties": {"Data Type": "Regional", "Country": "Myanmar", "City": "Kalay", "Current Cases": "6", "Total Cases": "6", "Deceased": "0", "Recovered": "0", "Total Cases/1M pop": "0", "Deaths/1M pop": "0", "Total Tests": "0", "Last Updated": "2020-05-04 16:50:27"}}, {"type": "Feature", "geometry": {"type": "Point", "coordinates": [95.47474, 24.476849]}, "properties": {"Data Type": "Regional", "Country": "Myanmar", "City": "Sagaing", "Current Cases": "1", "Total Cases": "1", "Deceased": "0", "Recovered": "0", "Total Cases/1M pop": "0", "Deaths/1M pop": "0", "Total Tests": "0", "Last Updated": "2020-05-04 16:50:27"}}, {"type": "Feature", "geometry": {"type": "Point", "coordinates": [96.373198, 24.779057]}, "properties": {"Data Type": "Regional", "Country": "Myanmar", "City": "Mohnyin", "Current Cases": "1", "Total Cases": "1", "Deceased": "0", "Recovered": "0", "Total Cases/1M pop": "0", "Deaths/1M pop": "0", "Total Tests": "0", "Last Updated": "2020-05-04 16:50:27"}}, {"type": "Feature", "geometry": {"type": "Point", "coordinates": [-116.5765, 53.9333]}, "properties": {"Data Type": "Regional", "Country": "Canada", "City": "Alberta", "Current Cases": "5671", "Total Cases": "5766", "Deceased": "95", "Recovered": "0", "Total Cases/1M pop": "0", "Deaths/1M pop": "0", "Total Tests": "0", "Last Updated": "2020-05-04 16:24:46"}},